geonlp_id,entry_id,body,latitude,longitude,address,code,ne_class,type
"shFGGd","01_00001","北海道警察本部","43.063167","141.346118","札幌市中央区北2条西7丁目","jisx0401:01/jisx0402:01107","緊急施設/警察","1"
"adEzog","01_00002","北海道警察函館方面本部","41.796013","140.751973","函館市五稜郭町15-5","jisx0401:01/jisx0402:01202","緊急施設/警察","1"
"S9Ds6j","01_00003","北海道警察旭川方面本部","43.758229","142.386152","旭川市1条通25丁目487-6","jisx0401:01/jisx0402:01204","緊急施設/警察","1"
"A5CkOm","01_00004","北海道警察釧路方面本部","42.986723","144.38116","釧路市十丁目5-1","jisx0401:01/jisx0402:01206","緊急施設/警察","1"
"i1Bdwp","01_00005","北海道警察北見方面本部","43.813225","143.899169","北見市青葉町6-1","jisx0401:01/jisx0402:01208","緊急施設/警察","1"
"ZXA6es","01_00006","中央警察署","43.062164","141.349533","札幌市中央区北1条西5丁目4","jisx0401:01/jisx0402:01107","緊急施設/警察","2"
"HTyYWv","01_00007","南警察署","43.021331","141.345667","札幌市中央区南29条西11丁目1","jisx0401:01/jisx0402:01106","緊急施設/警察","2"
"pPxREy","01_00008","北警察署","43.09033","141.337812","札幌市北区北24条西8丁目2-20","jisx0401:01/jisx0402:01102","緊急施設/警察","2"
"7LwKmB","01_00009","東警察署","43.080875","141.352841","札幌市東区北16条東1丁目3-15","jisx0401:01/jisx0402:01103","緊急施設/警察","2"
"PHvD4E","01_00010","白石警察署","43.054342","141.379736","札幌市白石区菊水3条5丁目4-2","jisx0401:01/jisx0402:01104","緊急施設/警察","2"
"xDuvMH","01_00011","豊平警察署","43.041865","141.377339","札幌市豊平区豊平7条13丁目1-15","jisx0401:01/jisx0402:01105","緊急施設/警察","2"
"fztouK","01_00012","西警察署","43.077177","141.279957","札幌市西区西野2条5丁目3-60","jisx0401:01/jisx0402:01107","緊急施設/警察","2"
"XvshcN","01_00013","厚別警察署","43.03868","141.468599","札幌市厚別区厚別中央2条4丁目5-20","jisx0401:01/jisx0402:01108","緊急施設/警察","2"
"Frr9UQ","01_00014","手稲警察署","43.109935","141.254309","札幌市手稲区富丘1条4丁目3-1","jisx0401:01/jisx0402:01109","緊急施設/警察","2"
"nnq2CT","01_00015","函館西警察署","41.784039","140.731709","函館市海岸町11-27","jisx0401:01/jisx0402:01202","緊急施設/警察","2"
"5joVkW","01_00016","函館中央警察署","41.796013","140.751973","函館市五稜郭町15-5","jisx0401:01/jisx0402:01202","緊急施設/警察","2"
"NfnO2Z","01_00017","小樽警察署","43.194756","140.994038","小樽市富岡1-7-1","jisx0401:01/jisx0402:01203","緊急施設/警察","2"
"vbmGL2","01_00018","旭川中央警察署","43.770651","142.366824","旭川市6条通10丁目左10","jisx0401:01/jisx0402:01204","緊急施設/警察","2"
"d7lzt5","01_00019","旭川東警察署","43.758237","142.386045","旭川市1条通25丁目487-6","jisx0401:01/jisx0402:01204","緊急施設/警察","2"
"V3ksb8","01_00020","室蘭警察署","42.34111","141.027566","室蘭市東町4-27-10","jisx0401:01/jisx0402:01205","緊急施設/警察","2"
"CZjkTb","01_00021","釧路警察署","42.986695","144.381188","釧路市十丁目5-1","jisx0401:01/jisx0402:01206","緊急施設/警察","2"
"kVidBe","01_00022","帯広警察署","42.93221","143.202258","帯広市西1条北1丁目1","jisx0401:27/jisx0402:27127","緊急施設/警察","2"
"2Rh6jh","01_00023","北見警察署","43.813197","143.899197","北見市青葉町6-1","jisx0401:01/jisx0402:01208","緊急施設/警察","2"
"KNfZ1k","01_00024","夕張警察署","43.058575","141.97534","夕張市旭町4","jisx0401:01/jisx0402:01209","緊急施設/警察","2"
"sJeRJn","01_00025","岩見沢警察署","43.198315","141.773587","岩見沢市10条東2丁目1-1","jisx0401:01/jisx0402:01103","緊急施設/警察","2"
"aFdKrq","01_00026","網走警察署","44.020654","144.274739","網走市南6条東5丁目3","jisx0401:27/jisx0402:27105","緊急施設/警察","2"
"SBcD9t","01_00027","留萌警察署","43.938276","141.655738","留萌市高砂町3-5-1","jisx0401:01/jisx0402:01212","緊急施設/警察","2"
"AxbvRw","01_00028","苫小牧警察署","42.633891","141.603843","苫小牧市旭町3-5-12","jisx0401:01/jisx0402:01213","緊急施設/警察","2"
"itaozz","01_00029","稚内警察署","45.400499","141.683229","稚内市大黒1-6-48","jisx0401:01/jisx0402:01214","緊急施設/警察","2"
"0p9hhC","01_00030","美唄警察署","43.340125","141.863613","美唄市東1条北7丁目1-1","jisx0401:27/jisx0402:27127","緊急施設/警察","2"
"Il89ZF","01_00031","芦別警察署","43.516644","142.192377","芦別市南1条東2丁目12-12","jisx0401:27/jisx0402:27105","緊急施設/警察","2"
"qh72HI","01_00032","江別警察署","43.106669","141.543737","江別市弥生町23","jisx0401:01/jisx0402:01217","緊急施設/警察","2"
"8d5VpL","01_00033","赤歌警察署","43.551663","142.05689","赤平市東大町3-2","jisx0401:01/jisx0402:01218","緊急施設/警察","2"
"Q94O7O","01_00034","紋別警察署","44.34543","143.353697","紋別市南が丘町1-5-16","jisx0401:01/jisx0402:01219","緊急施設/警察","2"
"y53GPR","01_00035","士別警察署","44.17722","142.399489","士別市東5条5丁目1","jisx0401:01/jisx0402:01103","緊急施設/警察","2"
"g12zxU","01_00036","名寄警察署","44.355313","142.463389","名寄市大通南1-2","jisx0401:01/jisx0402:01221","緊急施設/警察","2"
"XX1sfX","01_00037","三笠警察署","43.245691","141.874036","三笠市幸町4","jisx0401:01/jisx0402:01222","緊急施設/警察","2"
"FT0kY0","01_00038","根室警察署","43.33197","145.585259","根室市弥栄町1-17","jisx0401:01/jisx0402:01223","緊急施設/警察","2"
"nOZdG3","01_00039","千歳警察署","42.824454","141.65388","千歳市東雲町5-61","jisx0401:01/jisx0402:01224","緊急施設/警察","2"
"5KY6o6","01_00040","滝川警察署","43.557047","141.915374","滝川市緑町1-1-12","jisx0401:01/jisx0402:01225","緊急施設/警察","2"
"NGWZ69","01_00041","砂川警察署","43.485647","141.906818","砂川市東2条南5丁目1","jisx0401:27/jisx0402:27145","緊急施設/警察","2"
"vCVROc","01_00042","深川警察署","43.71484","142.033023","深川市5条1-12","jisx0401:01/jisx0402:01228","緊急施設/警察","2"
"dyUKwf","01_00043","富良野警察署","43.339226","142.391538","富良野市若葉町11-1","jisx0401:01/jisx0402:01229","緊急施設/警察","2"
"VuTDei","01_00044","伊達警察署","42.476775","140.859578","伊達市館山町10-22","jisx0401:07/jisx0402:07213","緊急施設/警察","2"
"DqSvWl","01_00045","松前警察署","41.4302","140.11172","松前町字福山164","jisx0401:01/jisx0402:01331","緊急施設/警察","2"
"lmRoEo","01_00046","木古内警察署","41.676652","140.434543","木古内町字本町550-3","jisx0401:01/jisx0402:01334","緊急施設/警察","2"
"3iQhmr","01_00047","森警察署","42.104666","140.566399","森町字上台町299-6","jisx0401:01/jisx0402:01345","緊急施設/警察","2"
"LePa4u","01_00048","八雲警察署","42.255307","140.274417","八雲町富士見町113",,"緊急施設/警察","2"
"taO2Mx","01_00049","江差警察署","41.865317","140.1237","江差町字上野町30","jisx0401:01/jisx0402:01361","緊急施設/警察","2"
"b6MVuA","01_00050","せたな警察署","42.41625","139.878771","せたな町北檜山区徳島4-17","jisx0401:01/jisx0402:01371","緊急施設/警察","2"
"T2LOcD","01_00051","寿都警察署","42.793219","140.229615","寿都町字渡島町82-1","jisx0401:01/jisx0402:01392","緊急施設/警察","2"
"AYKGUG","01_00052","倶知安警察署","42.900915","140.755148","倶知安町南1条東2丁目","jisx0401:27/jisx0402:27105","緊急施設/警察","2"
"iUJzCJ","01_00053","岩内警察署","42.979207","140.510331","岩内町字高台5",,"緊急施設/警察","2"
"0QIskM","01_00054","余市警察署","43.195773","140.783628","余市町朝日町27","jisx0401:01/jisx0402:01408","緊急施設/警察","2"
"IMHl2P","01_00055","栗山警察署","43.056153","141.789746","栗山町朝日3丁目115-11","jisx0401:01/jisx0402:01429","緊急施設/警察","2"
"qIGdKS","01_00056","沼田警察署","43.809354","141.928443","沼田町北1条6丁目1-2","jisx0401:01/jisx0402:01102","緊急施設/警察","2"
"8EF6sV","01_00057","美深警察署","44.474268","142.349641","美深町字美深263","jisx0401:01/jisx0402:01469","緊急施設/警察","2"
"QADZaY","01_00058","羽幌警察署","44.362729","141.702013","羽幌町南4条4丁目13","jisx0401:01/jisx0402:01106","緊急施設/警察","2"
"ywCRT1","01_00059","天塩警察署","44.889507","141.744866","天塩町新栄通9","jisx0401:01/jisx0402:01487","緊急施設/警察","2"
"gsBKB4","01_00060","枝幸警察署","44.939736","142.582419","枝幸町字本町705-2","jisx0401:01/jisx0402:01514","緊急施設/警察","2"
"YoADj7","01_00061","美幌警察署","43.822451","144.102066","美幌町字大通南1-19","jisx0401:01/jisx0402:01543","緊急施設/警察","2"
"Gkzw1a","01_00062","斜里警察署","43.91312","144.666374","斜里町本町43-6","jisx0401:01/jisx0402:01545","緊急施設/警察","2"
"ogyoJd","01_00063","遠軽警察署","44.066285","143.526938","遠軽町大通北5-1-40","jisx0401:01/jisx0402:01555","緊急施設/警察","2"
"6cxhrg","01_00064","興部警察署","44.469128","143.126993","興部町字興部755-3","jisx0401:01/jisx0402:01561","緊急施設/警察","2"
"O8wa9j","01_00065","門別警察署","42.512141","142.035451","日高町富川東1-4-1","jisx0401:01/jisx0402:01601","緊急施設/警察","2"
"w4v2Rm","01_00066","浦河警察署","42.17084","142.766248","浦河町築地2-2-4","jisx0401:01/jisx0402:01607","緊急施設/警察","2"
"e0tVzp","01_00067","静内警察署","42.334476","142.367957","新ひだか町静内古川町1-3-22","jisx0401:01/jisx0402:01610","緊急施設/警察","2"
"VWsOhs","01_00068","新得警察署","43.077132","142.840792","新得町4条南6丁目1-2","jisx0401:01/jisx0402:01106","緊急施設/警察","2"
"DSrGZv","01_00069","広尾警察署","42.29554725","143.31378992","広尾町並木通東1丁目2－3","jisx0401:01/jisx0402:01642","緊急施設/警察","2"
"lOqzHy","01_00070","池田警察署","42.926782","143.446219","池田町西3条6丁目10","jisx0401:27/jisx0402:27106","緊急施設/警察","2"
"3KpspB","01_00071","本別警察署","43.12336104","143.61074049","本別町北1-4-20","jisx0401:01/jisx0402:01102","緊急施設/警察","2"
"LGol7E","01_00072","厚岸警察署","43.055425","144.845254","厚岸町真栄1丁目7","jisx0401:01/jisx0402:01662","緊急施設/警察","2"
"tCndPH","01_00073","弟子屈警察署","43.484278","144.459129","弟子屈町中央2-9-28","jisx0401:01/jisx0402:01665","緊急施設/警察","2"
"bym6xK","01_00074","中標津警察署","43.545302","144.968238","中標津町西5条南1丁目2-4","jisx0401:27/jisx0402:27145","緊急施設/警察","2"
"TukZfN","01_00075","西警察署円山交番","43.059259","141.319997","札幌市中央区北2条西24丁目26-4","jisx0401:01/jisx0402:01107","緊急施設/警察","4"
"BqjRXQ","01_00076","西警察署宮の森交番","43.056919","141.303332","札幌市中央区宮の森2条11丁目1-1","jisx0401:01/jisx0402:01101","緊急施設/警察","4"
"jmiKFT","01_00077","西警察署南円山交番","43.045724","141.32326","札幌市中央区22丁目1-5","jisx0401:01/jisx0402:01101","緊急施設/警察","4"
"1ihDnW","01_00078","中央警察署桑園西交番","43.063333","141.327203","札幌市中央区北4条西19丁目","jisx0401:01/jisx0402:01107","緊急施設/警察","4"
"Jegw5Z","01_00079","中央警察署御幸交番","43.054501","141.334981","札幌市中央区南3条西14丁目","jisx0401:01/jisx0402:01107","緊急施設/警察","4"
"rafoO2","01_00080","中央警察署札幌駅前交番","43.066769","141.349819","札幌市中央区北5条西4丁目","jisx0401:01/jisx0402:01102","緊急施設/警察","4"
"96ehw5","01_00081","中央警察署大通交番","43.061306","141.35634","札幌市中央区大通西1","jisx0401:01/jisx0402:01101","緊急施設/警察","4"
"R2dae8","01_00082","中央警察署南三条交番","43.05589","141.348174","札幌市中央区南3条西7丁目","jisx0401:01/jisx0402:01107","緊急施設/警察","4"
"yYc2Wb","01_00083","中央警察署薄野交番","43.055501","141.354035","札幌市中央区南4条西3丁目","jisx0401:01/jisx0402:01107","緊急施設/警察","4"
"gUaVEe","01_00084","中央警察署苗穂駅前交番","43.068473","141.377865","札幌市中央区北3条東13丁目","jisx0401:01/jisx0402:01103","緊急施設/警察","4"
"YQ9Omh","01_00085","中央警察署豊平橋交番","43.055918","141.363423","札幌市中央区南5条東4丁目","jisx0401:01/jisx0402:01103","緊急施設/警察","4"
"GM8H4k","01_00086","中央警察署北一条西交番","43.059806","141.334175","札幌市中央区北1条西15丁目","jisx0401:01/jisx0402:01102","緊急施設/警察","4"
"oI7zMn","01_00087","中央警察署北一条東交番","43.064501","141.3662","札幌市中央区北1条東7丁目","jisx0401:01/jisx0402:01103","緊急施設/警察","4"
"6E6suq","01_00088","南警察署行啓通交番","43.040364","141.343842","札幌市中央区南14条西10丁目2","jisx0401:01/jisx0402:01107","緊急施設/警察","4"
"OA5lct","01_00089","南警察署山鼻交番","43.029199","141.34537","札幌市中央区南23条西10丁目1","jisx0401:01/jisx0402:01107","緊急施設/警察","4"
"ww4dUw","01_00090","南警察署中島交番","43.048586","141.354285","札幌市中央区中島公園1-25","jisx0401:01/jisx0402:01101","緊急施設/警察","4"
"es36Cz","01_00091","南警察署南九条交番","43.048474","141.348591","札幌市中央区南9条西7丁目1","jisx0401:01/jisx0402:01107","緊急施設/警察","4"
"Wo1ZkC","01_00092","南警察署伏見交番","43.038391","141.329982","札幌市中央区南15条西18丁目2","jisx0401:01/jisx0402:01106","緊急施設/警察","4"
"Ek0S2F","01_00093","南警察署幌西交番","43.044752","141.335537","札幌市中央区南11条西15丁目2","jisx0401:01/jisx0402:01106","緊急施設/警察","4"
"mfZKKI","01_00094","北警察署あいの里交番","43.155852","141.399219","札幌市北区あいの里1条6丁目1-3","jisx0401:01/jisx0402:01102","緊急施設/警察","4"
"4bYDsL","01_00095","北警察署札幌駅北口交番","43.069972","141.350284","札幌市北区北7条西3丁目14-2","jisx0401:01/jisx0402:01107","緊急施設/警察","4"
"M7XwaO","01_00096","北警察署篠路交番","43.145212","141.365556","札幌市北区篠路4条7丁目2-47","jisx0401:01/jisx0402:01102","緊急施設/警察","4"
"u3WoSR","01_00097","北警察署新琴似交番","43.11391","141.330061","札幌市北区新琴似8条4丁目1-7","jisx0401:01/jisx0402:01102","緊急施設/警察","4"
"bZVhAU","01_00099","北警察署新光交番","43.112798","141.308035","札幌市北区新琴似1条12丁目6-43","jisx0401:01/jisx0402:01102","緊急施設/警察","4"
"TVUaiX","01_00100","北警察署新川交番","43.09469","141.322424","札幌市北区北26条西17丁目4-10","jisx0401:01/jisx0402:01107","緊急施設/警察","4"
"BRT310","01_00101","北警察署太平交番","43.133325","141.356557","札幌市北区太平9条5丁目6-1","jisx0401:01/jisx0402:01102","緊急施設/警察","4"
"jNRVJ3","01_00102","北警察署屯田交番","43.127325","141.337337","札幌市北区屯田4条3丁目2-5","jisx0401:01/jisx0402:01102","緊急施設/警察","4"
"1JQOr6","01_00103","北警察署北ニ十条交番","43.085537","141.343901","札幌市北区北20条西5丁目18-6","jisx0401:01/jisx0402:01107","緊急施設/警察","4"
"JFPH99","01_00104","北警察署北三十条交番","43.096024","141.3382","札幌市北区北30条西7丁目1-30","jisx0401:01/jisx0402:01107","緊急施設/警察","4"
"rBOzRc","01_00105","北警察署麻生交番","43.106467","141.338061","札幌市北区北39条西5丁目3-1","jisx0401:01/jisx0402:01107","緊急施設/警察","4"
"9xNszf","01_00106","東警察署栄西交番","43.110786","141.350746","札幌市東区北42条東4丁目1-35","jisx0401:01/jisx0402:01103","緊急施設/警察","4"
"RtMlhi","01_00107","東警察署栄東交番","43.112522","141.364985","札幌市東区北41条東14丁目2-16","jisx0401:01/jisx0402:01103","緊急施設/警察","4"
"zpLdZl","01_00108","東警察署丘珠交番","43.102552","141.387751","札幌市東区北35条東26丁目3-17","jisx0401:01/jisx0402:01103","緊急施設/警察","4"
"hlK6Ho","01_00109","東警察署元町交番","43.094775","141.377613","札幌市東区北24条東18丁目4-39","jisx0401:01/jisx0402:01103","緊急施設/警察","4"
"ZhIZpr","01_00110","東警察署札苗交番","43.097415","141.415361","札幌市東区東苗穂8条3丁目3-17","jisx0401:01/jisx0402:01103","緊急施設/警察","4"
"HdHS7u","01_00111","東警察署東苗穂交番","43.079084","141.401251","札幌市東区東苗穂1条3丁目3-54","jisx0401:01/jisx0402:01103","緊急施設/警察","4"
"p9GKPx","01_00112","東警察署苗穂交番","43.075445","141.383976","札幌市東区北6条東19丁目1-35","jisx0401:01/jisx0402:01103","緊急施設/警察","4"
"75FDxA","01_00113","東警察署北十二条東交番","43.07818","141.369211","札幌市東区北12条東11丁目1-12","jisx0401:01/jisx0402:01103","緊急施設/警察","4"
"P1EwfD","01_00114","東警察署北中央交番","43.073499","141.354478","札幌市東区北10条東1丁目1-3","jisx0401:01/jisx0402:01103","緊急施設/警察","4"
"wXDoXG","01_00115","東警察署北二十六条交番","43.09458","141.357171","札幌市東区北26条東6丁目1-1","jisx0401:01/jisx0402:01103","緊急施設/警察","4"
"eTChFJ","01_00116","白石警察署菊水元町交番","43.073307","141.41164","札幌市白石区菊水元町8条2丁目17-1","jisx0401:01/jisx0402:01104","緊急施設/警察","4"
"WPBanM","01_00117","白石警察署菊水交番","43.059418","141.370394","札幌市白石区菊水3条1丁目4-20","jisx0401:01/jisx0402:01104","緊急施設/警察","4"
"ELA35P","01_00118","白石警察署東橋交番","43.061724","141.386198","札幌市白石区菊水上町1条3丁目52","jisx0401:01/jisx0402:01104","緊急施設/警察","4"
"mHyVNS","01_00119","白石警察署東札幌交番","43.050864","141.389782","札幌市白石区東札幌4条3丁目6-21","jisx0401:01/jisx0402:01104","緊急施設/警察","4"
"4DxOvV","01_00120","白石警察署東白石交番","43.036228","141.43214","札幌市白石区本通16南4-19","jisx0401:01/jisx0402:01106","緊急施設/警察","4"
"MzwHdY","01_00121","白石警察署南郷交番","43.040312","141.406271","札幌市白石区南郷通6丁目南2-15","jisx0401:01/jisx0402:01106","緊急施設/警察","4"
"uvvzW1","01_00122","白石警察署白石中央交番","43.05133","141.408579","札幌市白石区本通2丁目北1-16","jisx0401:01/jisx0402:01102","緊急施設/警察","4"
"crusE4","01_00123","白石警察署白石本通交番","43.0427","141.424291","札幌市白石区本通11丁目北1-32","jisx0401:01/jisx0402:01102","緊急施設/警察","4"
"Untlm7","01_00124","白石警察署北郷交番","43.057975","141.418545","札幌市白石区北郷3条5丁目3-16","jisx0401:01/jisx0402:01104","緊急施設/警察","4"
"Cjse4a","01_00125","白石警察署北都交番","43.053365","141.440249","札幌市白石区北郷4条13丁目3-12","jisx0401:01/jisx0402:01104","緊急施設/警察","4"
"kfr6Md","01_00126","豊平警察署旭交番","43.044299","141.370189","札幌市豊平区豊平8条8丁目2-47","jisx0401:01/jisx0402:01105","緊急施設/警察","4"
"2bpZug","01_00127","豊平警察署月寒交番","43.031117","141.396227","札幌市豊平区月寒中央通7丁目8-22","jisx0401:01/jisx0402:01105","緊急施設/警察","4"
"K7oScj","01_00128","豊平警察署西岡交番","43.003314","141.385396","札幌市豊平区西岡4条9丁目1-36","jisx0401:01/jisx0402:01105","緊急施設/警察","4"
"s3nKUm","01_00129","豊平警察署中の島交番","43.03431","141.358369","札幌市豊平区中の島1条4丁目2-7","jisx0401:01/jisx0402:01105","緊急施設/警察","4"
"9ZmDCp","01_00130","豊平警察署東月寒交番","43.020702","141.421364","札幌市豊平区月寒東3条17丁目15","jisx0401:01/jisx0402:01105","緊急施設/警察","4"
"RVlwks","01_00131","豊平警察署南平岸交番","43.026838","141.369007","札幌市豊平区平岸3条13丁目5-26","jisx0401:01/jisx0402:01105","緊急施設/警察","4"
"zRkp2v","01_00132","豊平警察署美園交番","43.042421","141.38631","札幌市豊平区美園3条4丁目1-20","jisx0401:01/jisx0402:01105","緊急施設/警察","4"
"hNjhKy","01_00133","豊平警察署福住交番","43.014257","141.398978","札幌市豊平区福住2条5丁目4-6","jisx0401:01/jisx0402:01105","緊急施設/警察","4"
"ZJiasB","01_00134","豊平警察署平岸交番","43.035671","141.37059","札幌市豊平区平岸3条7丁目1-6","jisx0401:01/jisx0402:01105","緊急施設/警察","4"
"HFh3aE","01_00135","豊平警察署豊平交番","43.050019","141.374845","札幌市豊平区豊平3条7丁目2-15","jisx0401:01/jisx0402:01105","緊急施設/警察","4"
"pBfVSH","01_00136","南警察署真駒内交番","43.003729","141.348594","札幌市南区真駒内曙町1丁目2","jisx0401:01/jisx0402:01106","緊急施設/警察","4"
"7xeOAK","01_00137","南警察署真駒内団地交番","42.99037","141.353122","札幌市南区真駒内幸町2丁目1","jisx0401:01/jisx0402:01106","緊急施設/警察","4"
"PtdHiN","01_00138","南警察署澄川交番","43.011201","141.365897","札幌市南区澄川4条4丁目1","jisx0401:01/jisx0402:01106","緊急施設/警察","4"
"xpcA0Q","01_00139","南警察署石山交番","42.970372","141.338068","札幌市南区石山1条3丁目1-1","jisx0401:01/jisx0402:01106","緊急施設/警察","4"
"flbsIT","01_00140","南警察署藻南交番","42.986592","141.335124","札幌市南区川沿9条1丁目1","jisx0401:01/jisx0402:01106","緊急施設/警察","4"
"XhalqW","01_00141","南警察署定山渓交番","42.963978","141.164361","札幌市南区定山渓温泉東3丁目287","jisx0401:01/jisx0402:01106","緊急施設/警察","4"
"Fd9e8Z","01_00142","南警察署藤野交番","42.961865","141.296142","札幌市南区藤野2条6丁目5-2","jisx0401:01/jisx0402:01106","緊急施設/警察","4"
"n986R2","01_00143","南警察署北ノ沢交番","42.99934","141.324985","札幌市南区川沿2条5丁目1","jisx0401:01/jisx0402:01106","緊急施設/警察","4"
"556Zz5","01_00144","西警察署琴似駅前交番","43.082108","141.310148","札幌市西区八軒1条東1丁目5-8","jisx0401:01/jisx0402:01103","緊急施設/警察","4"
"N15Sh8","01_00145","西警察署琴似本通交番","43.072942","141.299038","札幌市西区山の手3条1丁目3-26","jisx0401:01/jisx0402:01107","緊急施設/警察","4"
"uX4KZb","01_00146","西警察署山の手連絡所","43.066415","141.297622","札幌市西区山の手2条6丁目2-14","jisx0401:01/jisx0402:01107","緊急施設/警察","8"
"cT3DHe","01_00147","西警察署西町交番","43.079219","141.288983","札幌市西区西町北6-1-8","jisx0401:01/jisx0402:01107","緊急施設/警察","4"
"UP2wph","01_00148","西警察署西野交番","43.062803","141.265069","札幌市西区西野9条4丁目6-37","jisx0401:01/jisx0402:01107","緊急施設/警察","4"
"CL1p7k","01_00149","西警察署鉄工団地交番","43.100661","141.29001","札幌市西区発寒13条5丁目2-39","jisx0401:01/jisx0402:01107","緊急施設/警察","4"
"kH0hPn","01_00150","西警察署二十四軒交番","43.073839","141.312927","札幌市西区二十四軒2条3丁目2-26","jisx0401:01/jisx0402:01107","緊急施設/警察","4"
"2CZaxq","01_00151","西警察署八軒交番","43.091495","141.307981","札幌市西区八軒6条西6丁目1-1","jisx0401:01/jisx0402:01107","緊急施設/警察","4"
"KyY3ft","01_00152","西警察署発寒交番","43.089523","141.29326","札幌市西区発寒6条4丁目1-17","jisx0401:01/jisx0402:01107","緊急施設/警察","4"
"suWVXw","01_00153","厚別警察署ひばりが丘交番","43.033896","141.459249","札幌市厚別区厚別中央2条2丁目1-30","jisx0401:01/jisx0402:01108","緊急施設/警察","4"
"aqVOFz","01_00154","厚別警察署もみじ台交番","43.03684","141.473386","札幌市厚別区もみじ台西4丁目2-50","jisx0401:01/jisx0402:01108","緊急施設/警察","4"
"SmUHnC","01_00155","厚別警察署上野幌交番","43.019845","141.470929","札幌市厚別区上野幌1条2丁目6-25","jisx0401:01/jisx0402:01108","緊急施設/警察","4"
"AiTA5F","01_00156","厚別警察署信濃交番","43.042395","141.461637","札幌市厚別区厚別中央5条2丁目5-21","jisx0401:01/jisx0402:01108","緊急施設/警察","4"
"ieSsNI","01_00157","厚別警察署新札幌交番","43.03684","141.473386","札幌市厚別区厚別中央1条5丁目2-2","jisx0401:01/jisx0402:01108","緊急施設/警察","4"
"0aRlvL","01_00158","厚別警察署森林公園交番","43.060171","141.476552","札幌市厚別区厚別北4条4丁目16","jisx0401:01/jisx0402:01108","緊急施設/警察","4"
"I6QedO","01_00159","手稲警察署稲積交番","43.116936","141.267983","札幌市手稲区新発寒5条6丁目2-8","jisx0401:01/jisx0402:01109","緊急施設/警察","4"
"q2P6VR","01_00160","手稲警察署稲穂交番","43.128513","141.212827","札幌市手稲区稲穂3条7丁目6-10","jisx0401:01/jisx0402:01109","緊急施設/警察","4"
"7YNZDU","01_00161","手稲警察署手稲交番","43.117269","141.241652","札幌市手稲区手稲本町3条1丁目1－7","jisx0401:01/jisx0402:01109","緊急施設/警察","4"
"PUMSlX","01_00162","手稲警察署手稲山口交番","43.13888","141.235248","札幌市手稲区明日風1丁目1-16","jisx0401:01/jisx0402:01109","緊急施設/警察","4"
"xQLL40","01_00163","手稲警察署星置交番","43.133377","141.209264","札幌市手稲区星置1条4丁目7-1","jisx0401:01/jisx0402:01109","緊急施設/警察","4"
"fMKDM3","01_00164","手稲警察署西宮の沢交番","43.097271","141.25829","札幌市手稲区西宮の沢4条2丁目200-1","jisx0401:01/jisx0402:01109","緊急施設/警察","4"
"XIJwu6","01_00165","手稲警察署前田交番","43.130989","141.243762","札幌市手稲区前田5条15丁目8-13","jisx0401:01/jisx0402:01109","緊急施設/警察","4"
"FEIpc9","01_00166","豊平警察署清田交番","43.000121","141.439003","札幌市清田区清田1条4丁目3-1","jisx0401:01/jisx0402:01110","緊急施設/警察","4"
"nAHhUc","01_00167","豊平警察署中央通交番","42.990178","141.450974","札幌市清田区平岡1条5丁目4-3","jisx0401:01/jisx0402:01110","緊急施設/警察","4"
"5wGaCf","01_00168","豊平警察署美しが丘交番","42.981272","141.454396","札幌市清田区美しが丘3条4丁目1-33","jisx0401:01/jisx0402:01110","緊急施設/警察","4"
"NsF3ki","01_00169","豊平警察署北野交番","43.011065","141.449057","札幌市清田区北野4条5丁目4-60","jisx0401:01/jisx0402:01110","緊急施設/警察","4"
"voDW2l","01_00170","函館西警察署亀田交番","41.797537","140.73407","函館市亀田町17-25","jisx0401:01/jisx0402:01202","緊急施設/警察","4"
"dkCOKo","01_00171","函館西警察署港交番","41.810967","140.714166","函館市港町3丁目14-13","jisx0401:01/jisx0402:01202","緊急施設/警察","4"
"VgBHsr","01_00172","函館西警察署十字街交番","41.764429","140.719239","函館市豊川町7-31","jisx0401:01/jisx0402:01202","緊急施設/警察","4"
"DcAAau","01_00173","函館西警察署青柳交番","41.75691","140.717867","函館市青柳町21-21","jisx0401:01/jisx0402:01202","緊急施設/警察","4"
"l8zsSx","01_00174","函館西警察署大森交番","41.770179","140.734321","函館市大森町17-11","jisx0401:01/jisx0402:01202","緊急施設/警察","4"
"34ylAA","01_00175","函館西警察署函館駅前交番","41.77252","140.727714","函館市若松町15-8","jisx0401:01/jisx0402:01202","緊急施設/警察","4"
"L0xeiD","01_00176","函館西警察署万代交番","41.78801","140.732264","函館市万代町5-11","jisx0401:01/jisx0402:01202","緊急施設/警察","4"
"sWw70G","01_00178","函館中央警察署桔梗交番","41.832286","140.729397","函館市桔梗1-7-11","jisx0401:01/jisx0402:01202","緊急施設/警察","4"
"aSuZIJ","01_00179","函館中央警察署駒場交番","41.78244","140.776493","函館市駒場町13-12","jisx0401:01/jisx0402:01202","緊急施設/警察","4"
"SOtSqM","01_00180","函館中央警察署昭和交番","41.818424","140.733791","函館市昭和4-27-20","jisx0401:01/jisx0402:01202","緊急施設/警察","4"
"AKsL8P","01_00181","函館中央警察署新川交番","41.77779","140.740514","函館市堀川町6-1","jisx0401:01/jisx0402:01202","緊急施設/警察","4"
"iGrDQS","01_00182","函館中央警察署人見交番","41.781207","140.760485","函館市人見町17-16","jisx0401:01/jisx0402:01202","緊急施設/警察","4"
"0CqwyV","01_00183","函館中央警察署杉並交番","41.788622","140.757013","函館市杉並町23-10","jisx0401:01/jisx0402:01202","緊急施設/警察","4"
"IyppgY","01_00184","函館中央警察署赤川交番","41.815453","140.753678","函館市美原3-1-7","jisx0401:01/jisx0402:01202","緊急施設/警察","4"
"quohZ1","01_00185","函館中央警察署鍛神交番","41.809954","140.763817","函館市中道2-24-10","jisx0401:01/jisx0402:01202","緊急施設/警察","4"
"8qnaH4","01_00186","函館中央警察署東山交番","41.804788","140.773122","函館市東山2-1-25","jisx0401:01/jisx0402:01202","緊急施設/警察","4"
"Qmm3p7","01_00187","函館中央警察署湯川交番","41.781958","140.782624","函館市湯川町1-32-3","jisx0401:01/jisx0402:01202","緊急施設/警察","4"
"yikW7a","01_00188","函館中央警察署日吉交番","41.790794","140.786228","函館市日吉町1-24-2","jisx0401:01/jisx0402:01202","緊急施設/警察","4"
"gejOPd","01_00189","函館中央警察署富岡交番","41.807727","140.744445","函館市富岡町1-44-7","jisx0401:01/jisx0402:01202","緊急施設/警察","4"
"YaiHxg","01_00190","函館中央警察署本町交番","41.78965","140.750096","函館市本町7-20","jisx0401:01/jisx0402:01202","緊急施設/警察","4"
"G6hAfj","01_00191","小樽警察署花園交番","43.191725","141.00128","小樽市花園3-1-1","jisx0401:01/jisx0402:01203","緊急施設/警察","4"
"o2gsXm","01_00192","小樽警察署最上交番","43.184114","140.986893","小樽市最上1-1-1","jisx0401:01/jisx0402:01203","緊急施設/警察","4"
"5YflFp","01_00193","小樽警察署桜交番","43.1742","141.035528","小樽市桜2-24-13","jisx0401:01/jisx0402:01203","緊急施設/警察","4"
"NUeens","01_00194","小樽警察署若松交番","43.182953","141.006933","小樽市若松1-9-9","jisx0401:01/jisx0402:01203","緊急施設/警察","4"
"vQd75v","01_00195","小樽警察署手宮交番","43.209362","140.998418","小樽市手宮1-3-1","jisx0401:01/jisx0402:01203","緊急施設/警察","4"
"dMbZNy","01_00196","小樽警察署小樽駅前交番","43.196947","140.994197","小樽市稲穂2丁目22－11","jisx0401:01/jisx0402:01203","緊急施設/警察","4"
"VIaSvB","01_00198","小樽警察署銭函交番","43.138763","141.161434","小樽市見晴町8-3","jisx0401:01/jisx0402:01203","緊急施設/警察","4"
"DE9LdE","01_00199","小樽警察署築港交番","43.180532","141.028418","小樽市築港1-3","jisx0401:01/jisx0402:01203","緊急施設/警察","4"
"lA8DVH","01_00200","小樽警察署朝里交番","43.175645","141.056498","小樽市新光1-9-12","jisx0401:01/jisx0402:01203","緊急施設/警察","4"
"3w7wDK","01_00201","小樽警察署長橋交番","43.207862","140.981086","小樽市長橋3-1-1",,"緊急施設/警察","4"
"Ls6plN","01_00203","旭川中央警察署旭町交番","43.782289","142.356908","旭川市旭町1条3丁目2764-1","jisx0401:01/jisx0402:01204","緊急施設/警察","4"
"to5i3Q","01_00204","旭川中央警察署駅前交番","43.763763","142.359825","旭川市宮下通8","jisx0401:01/jisx0402:01204","緊急施設/警察","4"
"bk4aLT","01_00205","旭川中央警察署近文交番","43.789843","142.32616","旭川市緑町20-2751","jisx0401:01/jisx0402:01204","緊急施設/警察","4"
"Tg33tW","01_00206","旭川中央警察署四条西交番","43.774096","142.344101","旭川市4条西5丁目2-4","jisx0401:01/jisx0402:01107","緊急施設/警察","4"
"Bc1WbZ","01_00207","旭川中央警察署七条通交番","43.767958","142.376628","旭川市7条通17丁目83","jisx0401:01/jisx0402:01204","緊急施設/警察","4"
"j80OU2","01_00208","旭川中央警察署春光交番","43.798955","142.379737","旭川市春光1条8丁目12-47","jisx0401:01/jisx0402:01204","緊急施設/警察","4"
"13ZHC5","01_00209","旭川中央警察署春光台交番","43.817991","142.359057","旭川市春光台2条4丁目3-9","jisx0401:01/jisx0402:01204","緊急施設/警察","4"
"IZYAk8","01_00210","旭川中央警察署神居交番","43.76429","142.332689","旭川市神居2条6丁目103-4","jisx0401:01/jisx0402:01204","緊急施設/警察","4"
"qVXt2b","01_00211","旭川中央警察署大町交番","43.79299","142.354323","旭川市住吉町4条1丁目1-1","jisx0401:01/jisx0402:01204","緊急施設/警察","4"
"8RWlKe","01_00212","旭川中央警察署中央交番","43.771734","142.355714","旭川市5条通4丁目893-4","jisx0401:01/jisx0402:01204","緊急施設/警察","4"
"QNVesh","01_00213","旭川中央警察署忠和交番","43.771844","142.31669","旭川市忠和7条5丁目1-6","jisx0401:01/jisx0402:01204","緊急施設/警察","4"
"yJU7ak","01_00214","旭川中央警察署末広交番","43.812401","142.37859","旭川市末広5条4丁目8-19","jisx0401:01/jisx0402:01204","緊急施設/警察","4"
"gFSZSn","01_00215","旭川東警察署永山交番","43.809303","142.431501","旭川市永山2条17丁目2-18","jisx0401:01/jisx0402:01204","緊急施設/警察","4"
"YBRSAq","01_00216","旭川東警察署永山西交番","43.794762","142.40829","旭川市永山2条7丁目1-58","jisx0401:01/jisx0402:01204","緊急施設/警察","4"
"GxQLit","01_00217","旭川東警察署金星交番","43.781952","142.373373","旭川市東3条5丁目1-39","jisx0401:01/jisx0402:01103","緊急施設/警察","4"
"otPE0w","01_00218","旭川東警察署神楽交番","43.762346","142.345854","旭川市神楽4条3丁目2-5","jisx0401:01/jisx0402:01204","緊急施設/警察","4"
"6pOwIz","01_00219","旭川東警察署大雪通交番","43.777846","142.38596","旭川市大雪通4-505-1","jisx0401:01/jisx0402:01204","緊急施設/警察","4"
"OlNpqC","01_00220","旭川東警察署東光交番","43.744017","142.399155","旭川市東光12条4丁目2-21","jisx0401:01/jisx0402:01204","緊急施設/警察","4"
"whMi8F","01_00221","旭川東警察署南町交番","43.752515","142.374657","旭川市南6条通21丁目1978-14","jisx0401:01/jisx0402:01106","緊急施設/警察","4"
"edLaQI","01_00222","旭川東警察署二条通交番","43.762347","142.375434","旭川市2条通18丁目916","jisx0401:01/jisx0402:01204","緊急施設/警察","4"
"W9K3yL","01_00223","旭川東警察署豊岡交番","43.758621","142.399209","旭川市豊岡3条3丁目5-13","jisx0401:01/jisx0402:01204","緊急施設/警察","4"
"E5IWgO","01_00224","旭川東警察署緑が丘交番","43.736073","142.382296","旭川市緑が丘1条2丁目1-2","jisx0401:01/jisx0402:01204","緊急施設/警察","4"
"m1HOYR","01_00225","室蘭警察署高砂交番","42.36043","141.03457","室蘭市高砂町1丁目19-4","jisx0401:01/jisx0402:01205","緊急施設/警察","4"
"3XGHGU","01_00226","室蘭警察署室蘭駅前交番","42.318597","140.973132","室蘭市海岸町1-20-6","jisx0401:01/jisx0402:01205","緊急施設/警察","4"
"LTFAoX","01_00227","室蘭警察署祝津警備派出所","42.336862","140.957048","室蘭市築地町138-11","jisx0401:01/jisx0402:01205","緊急施設/警察","6"
"tPEt70","01_00228","室蘭警察署知利別連絡所","42.363623","141.024987","室蘭市知利別町3-11-2","jisx0401:01/jisx0402:01205","緊急施設/警察","8"
"bLDlP3","01_00229","室蘭警察署中島交番","42.353096","141.013989","室蘭市中島本町1丁目4-3","jisx0401:01/jisx0402:01205","緊急施設/警察","4"
"THCex6","01_00230","室蘭警察署東町交番","42.344458","141.029432","室蘭市東町3-23-7","jisx0401:01/jisx0402:01205","緊急施設/警察","4"
"BDB7f9","01_00231","室蘭警察署白鳥台交番","42.378537","140.941131","室蘭市白鳥台5-19-16","jisx0401:01/jisx0402:01205","緊急施設/警察","4"
"jzzZXc","01_00232","室蘭警察署母恋交番","42.312737","140.991798","室蘭市母恋南町2-1-1","jisx0401:01/jisx0402:01205","緊急施設/警察","4"
"1vySFf","01_00233","室蘭警察署本輪西交番","42.362067","140.979963","室蘭市本輪西町2-5-20","jisx0401:01/jisx0402:01205","緊急施設/警察","4"
"JrxLni","01_00234","室蘭警察署輪西交番","42.334736","141.00999","室蘭市輪西町1-30-2","jisx0401:01/jisx0402:01205","緊急施設/警察","4"
"rnwE5l","01_00235","釧路警察署愛国交番","43.010554","144.383742","釧路市愛国西1-12-4","jisx0401:01/jisx0402:01206","緊急施設/警察","4"
"9jvwNo","01_00236","釧路警察署栄町交番","42.98521","144.387209","釧路市栄町6-9-1","jisx0401:01/jisx0402:01206","緊急施設/警察","4"
"Rfupvr","01_00237","釧路警察署駅前交番","42.989887","144.383531","釧路市北大通14-1-4","jisx0401:01/jisx0402:01206","緊急施設/警察","4"
"zbtidu","01_00238","釧路警察署共栄交番","42.997207","144.379965","釧路市共栄大通5-2-17","jisx0401:01/jisx0402:01206","緊急施設/警察","4"
"h7saVx","01_00239","釧路警察署桜ヶ岡交番","42.963117","144.428851","釧路市桜ヶ岡5-5-7","jisx0401:01/jisx0402:01206","緊急施設/警察","4"
"Z3r3DA","01_00242","釧路警察署昭和交番","43.024941","144.35126","釧路市昭和南5-33-17","jisx0401:01/jisx0402:01206","緊急施設/警察","4"
"GZpWlD","01_00243","釧路警察署城山交番","42.983523","144.394336","釧路市城山1-3","jisx0401:01/jisx0402:01206","緊急施設/警察","4"
"oVoP3G","01_00244","釧路警察署川北通交番","42.992778","144.392464","釧路市新富町9-17","jisx0401:01/jisx0402:01206","緊急施設/警察","4"
"6RnHLJ","01_00245","釧路警察署大楽毛交番","43.010308","144.27255","釧路市大楽毛5-8-20","jisx0401:01/jisx0402:01206","緊急施設/警察","4"
"ONmAtM","01_00246","釧路警察署鳥取交番","43.010046","144.362156","釧路市鳥取大通2-2-57","jisx0401:01/jisx0402:01206","緊急施設/警察","4"
"wJltbP","01_00247","釧路警察署鳥取西交番","43.017104","144.333299","釧路市鳥取大通9-2-15","jisx0401:01/jisx0402:01206","緊急施設/警察","4"
"eFklTS","01_00249","釧路警察署美原交番","43.020387","144.406601","釧路市美原4-1-1","jisx0401:01/jisx0402:01206","緊急施設/警察","4"
"WBjeBV","01_00250","釧路警察署富士見交番","42.977335","144.386689","釧路市富士見1-1-9","jisx0401:01/jisx0402:01206","緊急施設/警察","4"
"Exi7jY","01_00251","釧路警察署武佐交番","42.985642","144.431461","釧路市武佐4-28-2","jisx0401:01/jisx0402:01206","緊急施設/警察","4"
"mth021","01_00253","釧路警察署望洋交番","42.970449","144.417296","釧路市春採5-13-1","jisx0401:01/jisx0402:01206","緊急施設/警察","4"
"4pfSK4","01_00254","帯広警察署稲田交番","42.891083","143.194489","帯広市稲田町南8線西14-33","jisx0401:01/jisx0402:01107","緊急施設/警察","4"
"MleLs7","01_00255","帯広警察署駅前交番","42.918358","143.202994","帯広市西3条南12丁目8","jisx0401:27/jisx0402:27145","緊急施設/警察","4"
"uhdEaa","01_00256","帯広警察署新緑通交番","42.911911","143.137917","帯広市西22条南4丁目1-6","jisx0401:27/jisx0402:27145","緊急施設/警察","4"
"cdcwSd","01_00257","帯広警察署西五条交番","42.913924","143.198594","帯広市西5条南16丁目4-5","jisx0401:27/jisx0402:27145","緊急施設/警察","4"
"U9bpAg","01_00258","帯広警察署西三条交番","42.923635","143.199938","帯広市西3条南7丁目1","jisx0401:27/jisx0402:27145","緊急施設/警察","4"
"C5aiij","01_00259","帯広警察署西十七条交番","42.934326","143.169024","帯広市西17条北1丁目1-16","jisx0401:27/jisx0402:27127","緊急施設/警察","4"
"k19b0m","01_00260","帯広警察署西帯広交番","42.925826","143.12525","帯広市西23条南1丁目70-1","jisx0401:27/jisx0402:27145","緊急施設/警察","4"
"1X83Ip","01_00261","帯広警察署大空交番","42.875783","143.150371","帯広市大空町12丁目1-10","jisx0401:01/jisx0402:01207","緊急施設/警察","4"
"JT6Wqs","01_00262","帯広警察署大通交番","42.909693","143.206744","帯広市大通南21-6-1","jisx0401:01/jisx0402:01207","緊急施設/警察","4"
"rP5P8v","01_00263","帯広警察署東四条交番","42.922164","143.211493","帯広市東4条南9丁目19","jisx0401:27/jisx0402:27145","緊急施設/警察","4"
"9L4HQy","01_00264","帯広警察署柏林台交番","42.920078","143.17392","帯広市西16条南2丁目11-9","jisx0401:27/jisx0402:27145","緊急施設/警察","4"
"RH3AyB","01_00265","帯広警察署緑ヶ丘交番","42.909248","143.186245","帯広市緑ヶ丘東通東47-1","jisx0401:01/jisx0402:01103","緊急施設/警察","4"
"zD2tgE","01_00266","北見警察署駅前交番","43.80542","143.897031","北見市大通東1-18-2","jisx0401:01/jisx0402:01208","緊急施設/警察","4"
"hz1lYH","01_00267","北見警察署高栄交番","43.814779","143.859978","北見市高栄西町7丁目6-7","jisx0401:01/jisx0402:01208","緊急施設/警察","4"
"Zv0eGK","01_00268","北見警察署西交番","43.799476","143.878005","北見市東三輪4丁目16-172","jisx0401:01/jisx0402:01208","緊急施設/警察","4"
"HqZ7oN","01_00269","北見警察署中央交番","43.812974","143.881337","北見市寿町3-1-5","jisx0401:01/jisx0402:01208","緊急施設/警察","4"
"pmY06Q","01_00270","北見警察署南交番","43.799617","143.901769","北見市南町1丁目4-15","jisx0401:01/jisx0402:01208","緊急施設/警察","4"
"7iWSOT","01_00271","北見警察署留辺蘂交番","43.785859","143.624886","北見市留辺蘂町元町49","jisx0401:01/jisx0402:01208","緊急施設/警察","4"
"PeVLwW","01_00272","夕張警察署若菜交番","43.024993","141.97277","夕張市若菜10-28","jisx0401:01/jisx0402:01209","緊急施設/警察","4"
"xaUEeZ","01_00273","夕張警察署清水沢交番","43.001806","142.007645","夕張市清水沢2-52","jisx0401:01/jisx0402:01209","緊急施設/警察","4"
"f6TwX2","01_00274","夕張警察署末広連絡所","43.05046424","141.96641089","夕張市末広1-94-1","jisx0401:01/jisx0402:01209","緊急施設/警察","8"
"X2SpF5","01_00275","岩見沢警察署駅前交番","43.20347","141.760908","岩見沢市1条西5丁目8-3","jisx0401:01/jisx0402:01107","緊急施設/警察","4"
"EYRin8","01_00277","岩見沢警察署東光交番","43.210137","141.781913","岩見沢市5条東13丁目9-16","jisx0401:01/jisx0402:01103","緊急施設/警察","4"
"mUQb5b","01_00278","岩見沢警察署美園交番","43.185695","141.764464","岩見沢市美園5条4丁目2-1","jisx0401:01/jisx0402:01210","緊急施設/警察","4"
"4QP3Ne","01_00279","網走警察署駅前交番","44.021237","144.253575","網走市新町1-3-31","jisx0401:01/jisx0402:01211","緊急施設/警察","4"
"MMNWvh","01_00280","網走警察署駒場交番","44.00455","144.280197","網走市駒場北4-1-1-2","jisx0401:01/jisx0402:01211","緊急施設/警察","4"
"uIMPdk","01_00281","網走警察署中央交番","44.022848","144.267518","網走市南1条東1丁目2-6","jisx0401:27/jisx0402:27105","緊急施設/警察","4"
"cELHVn","01_00282","留萌警察署駅前交番","43.942525","141.651377","留萌市栄町1","jisx0401:01/jisx0402:01212","緊急施設/警察","4"
"UAKADq","01_00283","留萌警察署幸町交番","43.939275","141.639323","留萌市幸町3-12-3","jisx0401:01/jisx0402:01212","緊急施設/警察","4"
"CwJtlt","01_00284","苫小牧警察署駅前交番","42.639251","141.596399","苫小牧市表町6丁目4-3","jisx0401:01/jisx0402:01213","緊急施設/警察","4"
"ksIm3w","01_00285","苫小牧警察署錦岡交番","42.61111","141.494666","苫小牧市青雲町1-22-7","jisx0401:01/jisx0402:01213","緊急施設/警察","4"
"2oHeLz","01_00286","苫小牧警察署山手交番","42.636111","141.57382","苫小牧市北光町2-15-12","jisx0401:01/jisx0402:01213","緊急施設/警察","4"
"KkG7tC","01_00287","苫小牧警察署糸井交番","42.626611","141.539299","苫小牧市しらかば町5-6-19","jisx0401:01/jisx0402:01213","緊急施設/警察","4"
"sgF0bF","01_00288","苫小牧警察署沼ノ端交番","42.669585","141.696859","苫小牧市字沼ノ端653-8","jisx0401:01/jisx0402:01213","緊急施設/警察","4"
"acDSTI","01_00289","苫小牧警察署双葉交番","42.647834","141.611702","苫小牧市双葉町2-1-8","jisx0401:01/jisx0402:01213","緊急施設/警察","4"
"S8CLBL","01_00290","苫小牧警察署美園交番","42.658528","141.617728","苫小牧市美園町1-4-3","jisx0401:01/jisx0402:01213","緊急施設/警察","4"
"A4BEjO","01_00291","苫小牧警察署本町交番","42.630057","141.595123","苫小牧市本町1-1-13","jisx0401:01/jisx0402:01213","緊急施設/警察","4"
"i0Ax1R","01_00292","苫小牧警察署木場交番","42.645834","141.599093","苫小牧市木場町2-9-29","jisx0401:01/jisx0402:01213","緊急施設/警察","4"
"ZWzpJU","01_00293","苫小牧警察署弥生交番","42.62685","141.580069","苫小牧市弥生町2-2-7","jisx0401:01/jisx0402:01213","緊急施設/警察","4"
"HSyirX","01_00294","苫小牧警察署臨港交番","42.642224","141.617702","苫小牧市元中野町4-13-16","jisx0401:01/jisx0402:01213","緊急施設/警察","4"
"pOxba0","01_00295","稚内警察署大黒交番","45.397583","141.68784","稚内市大黒3-2-6","jisx0401:01/jisx0402:01214","緊急施設/警察","4"
"7Kw3S3","01_00296","稚内警察署中央交番","45.417664","141.676756","稚内市中央4-5-27","jisx0401:01/jisx0402:01214","緊急施設/警察","4"
"PGuWA6","01_00297","稚内警察署朝日交番","45.386021","141.705756","稚内市朝日1-1-5","jisx0401:01/jisx0402:01214","緊急施設/警察","4"
"xCtPi9","01_00298","美唄警察署駅前交番","43.330792","141.861558","美唄市東1条南2丁目3-2","jisx0401:27/jisx0402:27145","緊急施設/警察","4"
"fysI0c","01_00299","芦別警察署駅前交番","43.513663","142.18785","芦別市本町1017","jisx0401:01/jisx0402:01216","緊急施設/警察","4"
"XurAIf","01_00300","江別警察署駅前交番","43.111113","141.557486","江別市2条6丁目6-1","jisx0401:01/jisx0402:01217","緊急施設/警察","4"
"Fqqtqi","01_00301","江別警察署大麻交番","43.074201","141.495667","江別市大麻中町26","jisx0401:01/jisx0402:01217","緊急施設/警察","4"
"nmpm8l","01_00302","江別警察署朝日交番","43.107281","141.573707","江別市朝日町8-4","jisx0401:01/jisx0402:01217","緊急施設/警察","4"
"5ioeQo","01_00303","江別警察署東野幌交番","43.089809","141.531669","江別市東野幌本町7-1","jisx0401:01/jisx0402:01217","緊急施設/警察","4"
"Nen7yr","01_00304","江別警察署文京台交番","43.067616","141.491105","江別市文京台27-4","jisx0401:01/jisx0402:01217","緊急施設/警察","4"
"vam0gu","01_00305","江別警察署野幌交番","43.091975","141.521712","江別市野幌町82-2","jisx0401:01/jisx0402:01217","緊急施設/警察","4"
"d6kSYx","01_00306","赤歌警察署駅前交番","43.555218","142.048391","赤平市泉町1-1","jisx0401:01/jisx0402:01218","緊急施設/警察","4"
"V2jLGA","01_00307","赤歌警察署文京町交番","43.563205","142.041984","赤平市西文京町3-1","jisx0401:01/jisx0402:01218","緊急施設/警察","4"
"CYiEoD","01_00308","紋別警察署中央交番","44.351472","143.351664","紋別市幸町5-1","jisx0401:01/jisx0402:01219","緊急施設/警察","4"
"kUhx6G","01_00309","士別警察署駅前交番","44.172081","142.388602","士別市西3条9丁目782","jisx0401:01/jisx0402:01107","緊急施設/警察","4"
"2QgpOJ","01_00310","名寄警察署駅前交番","44.349119","142.464917","名寄市東1条南7丁目1","jisx0401:27/jisx0402:27145","緊急施設/警察","4"
"KMfiwM","01_00311","名寄警察署西五条交番","44.349067","142.455032","名寄市西5条南7丁目21-1","jisx0401:27/jisx0402:27145","緊急施設/警察","4"
"sIebeP","01_00312","根室警察署駅前交番","43.32716","145.582208","根室市光和町2丁目7","jisx0401:01/jisx0402:01223","緊急施設/警察","4"
"aEd3WS","01_00313","根室警察署桜橋交番","43.33172","145.579065","根室市弥生町2丁目3","jisx0401:01/jisx0402:01223","緊急施設/警察","4"
"SAbWEV","01_00314","根室警察署明治交番","43.331754","145.598511","根室市明治町2-16-2","jisx0401:01/jisx0402:01223","緊急施設/警察","4"
"AwaPmY","01_00315","千歳警察署駅前交番","42.827316","141.652222","千歳市千代田町7-101-19","jisx0401:01/jisx0402:01224","緊急施設/警察","4"
"is9I51","01_00316","千歳警察署向陽台交番","42.785658","141.601083","千歳市里美2-17-1","jisx0401:01/jisx0402:01224","緊急施設/警察","4"
"0o8AN4","01_00317","千歳警察署住吉交番","42.833648","141.662023","千歳市住吉1-8-11","jisx0401:01/jisx0402:01224","緊急施設/警察","4"
"Ik7tv7","01_00318","千歳警察署新富交番","42.836247","141.629155","千歳市信濃2-33-3","jisx0401:01/jisx0402:01224","緊急施設/警察","4"
"qg6mda","01_00319","千歳警察署本町交番","42.816982","141.648548","千歳市本町4-7-13","jisx0401:01/jisx0402:01224","緊急施設/警察","4"
"8c5eVd","01_00320","滝川警察署駅前交番","43.554658","141.90132","滝川市栄町3-11-2","jisx0401:01/jisx0402:01225","緊急施設/警察","4"
"Q847Dg","01_00321","滝川警察署黄金町交番","43.572518","141.916068","滝川市黄金町東1-1-1","jisx0401:01/jisx0402:01225","緊急施設/警察","4"
"y430lj","01_00322","滝川警察署明神交番","43.554492","141.907597","滝川市明神町2-1-22","jisx0401:01/jisx0402:01225","緊急施設/警察","4"
"g01T3m","01_00323","砂川警察署駅前交番","43.492526","141.908825","砂川市東2条北2丁目1-21","jisx0401:27/jisx0402:27127","緊急施設/警察","4"
"XW0LLp","01_00324","砂川警察署豊沼交番","43.475916","141.902272","砂川市西1条南12丁目1-5","jisx0401:27/jisx0402:27145","緊急施設/警察","4"
"FRZEts","01_00325","赤歌警察署歌志内交番","43.519984","142.045135","歌志内市字東光1-2","jisx0401:01/jisx0402:01227","緊急施設/警察","4"
"nNYxbv","01_00326","深川警察署駅前交番","43.720787","142.042633","深川市1条9-16","jisx0401:01/jisx0402:01228","緊急施設/警察","4"
"5JXpTy","01_00327","富良野警察署駅前交番","43.346308","142.391538","富良野市日の出町2-10","jisx0401:01/jisx0402:01229","緊急施設/警察","4"
"NFWiBB","01_00328","室蘭警察署新生交番","42.379758","141.065739","登別市新生町4-12-5","jisx0401:01/jisx0402:01230","緊急施設/警察","4"
"vBVbjE","01_00329","室蘭警察署登別温泉交番","42.491112","141.144138","登別市登別温泉町17","jisx0401:01/jisx0402:01230","緊急施設/警察","4"
"dxU41H","01_00330","室蘭警察署登別交番","42.401927","141.095036","登別市桜木町1-20-6","jisx0401:01/jisx0402:01230","緊急施設/警察","4"
"VtSWJK","01_00332","室蘭警察署登別東交番","42.452507","141.178025","登別市登別東町2-22-1","jisx0401:01/jisx0402:01230","緊急施設/警察","4"
"DpRPrN","01_00333","千歳警察署恵み野交番","42.902692","141.579356","恵庭市恵み野西1-23-6","jisx0401:01/jisx0402:01231","緊急施設/警察","4"
"llQI9Q","01_00334","千歳警察署恵庭交番","42.888888","141.573662","恵庭市有明町5-1-7","jisx0401:01/jisx0402:01231","緊急施設/警察","4"
"3hPART","01_00335","伊達警察署駅前交番","42.469701","140.855901","伊達市山下町340-3","jisx0401:07/jisx0402:07213","緊急施設/警察","4"
"LdOtzW","01_00336","伊達警察署梅本交番","42.472254","140.872799","伊達市梅本町37-8","jisx0401:07/jisx0402:07213","緊急施設/警察","4"
"t9NmhZ","01_00337","厚別警察署大曲交番","42.970653","141.479584","北広島市大曲中央2-4-2","jisx0401:01/jisx0402:01234","緊急施設/警察","4"
"b5Mf02","01_00338","厚別警察署北広島駅前交番","42.979953","141.56229","北広島市北進町1-2-13","jisx0401:01/jisx0402:01234","緊急施設/警察","4"
"T1L7I5","01_00339","厚別警察署北広島交番","42.987987","141.564492","北広島市中央1-2-1","jisx0401:01/jisx0402:01234","緊急施設/警察","4"
"AXK0q8","01_00340","北警察署花川南交番","43.1481","141.292479","石狩市花川南5条2丁目198","jisx0401:01/jisx0402:01235","緊急施設/警察","4"
"iTIT8b","01_00341","北警察署花川北交番","43.173542","141.316308","石狩市花川北3条2丁目198-2","jisx0401:01/jisx0402:01235","緊急施設/警察","4"
"0PHLQe","01_00342","函館中央警察署七重浜交番","41.815718","140.704363","北斗市七重浜1-14-19","jisx0401:01/jisx0402:01236","緊急施設/警察","4"
"ILGEyh","01_00343","函館中央警察署北斗交番","41.81831","140.642993","北斗市飯生2-1-9","jisx0401:01/jisx0402:01236","緊急施設/警察","4"
"qHFxgk","01_00344","松前警察署福島交番","41.485702","140.253515","福島町字三岳39-5","jisx0401:01/jisx0402:01332","緊急施設/警察","4"
"8DEpYn","01_00345","函館中央警察署七飯交番","41.897214","140.691352","七飯町本町6-2-13","jisx0401:01/jisx0402:01337","緊急施設/警察","4"
"QzDiGq","01_00346","八雲警察署長万部交番","42.517795","140.379849","長万部町字長万部183-2","jisx0401:01/jisx0402:01347","緊急施設/警察","4"
"yvCbot","01_00347","せたな警察署今金交番","42.428808","140.017232","今金町字今金118-3","jisx0401:01/jisx0402:01370","緊急施設/警察","4"
"grB46w","01_00348","倶知安警察署駅前交番","42.901887","140.745843","倶知安町北3条西4丁目3-5","jisx0401:01/jisx0402:01102","緊急施設/警察","4"
"YnzWOz","01_00349","岩内警察署マリンプラザ交番","42.98304","140.515997","岩内町字万代48-6","jisx0401:01/jisx0402:01402","緊急施設/警察","4"
"GjyPwC","01_00350","余市警察署駅前交番","43.187136","140.794266","余市町黒川町5-43-8","jisx0401:01/jisx0402:01408","緊急施設/警察","4"
"ofxIeF","01_00351","砂川警察署奈井江交番","43.430728","141.888999","奈井江町字奈井江町227-19",,"緊急施設/警察","4"
"6bwAWI","01_00352","栗山警察署駅前交番","43.058514","141.776775","栗山町中央2-59-1",,"緊急施設/警察","4"
"O7vtEL","01_00353","旭川東警察署上川交番","43.850074","142.770755","上川町北町69-1","jisx0401:01/jisx0402:01457","緊急施設/警察","4"
"w3ummO","01_00354","旭川東警察署美瑛交番","43.59087","142.471435","美瑛町中町4","jisx0401:01/jisx0402:01459","緊急施設/警察","4"
"dZtf4R","01_00355","富良野警察署上富良野交番","43.457522","142.469942","上富良野町宮町1-1-34","jisx0401:01/jisx0402:01460","緊急施設/警察","4"
"VVs7MU","01_00356","美深警察署駅前交番","44.482629","142.349724","美深町字東3条南1丁目7-1","jisx0401:01/jisx0402:01106","緊急施設/警察","4"
"DRr0uX","01_00357","羽幌警察署北大通交番","44.3702","141.707484","羽幌町北大通2-7-1","jisx0401:01/jisx0402:01484","緊急施設/警察","4"
"lNpTd0","01_00358","美幌警察署仲町交番","43.832458","144.105853","美幌町字仲町2-38-1","jisx0401:01/jisx0402:01543","緊急施設/警察","4"
"3JoLV3","01_00359","遠軽警察署駅前交番","44.059431","143.524067","遠軽町大通北1-2-35","jisx0401:01/jisx0402:01555","緊急施設/警察","4"
"LFnED6","01_00360","苫小牧警察署萩野交番","42.51639","141.300791","白老町字萩野77-15","jisx0401:01/jisx0402:01578","緊急施設/警察","4"
"tBmxl9","01_00361","苫小牧警察署白老交番","42.55722","141.365232","白老町東町1-4-18","jisx0401:01/jisx0402:01578","緊急施設/警察","4"
"bxlq3c","01_00362","伊達警察署虻田交番","42.539515","140.772527","洞爺湖町入江44-1","jisx0401:01/jisx0402:01584","緊急施設/警察","4"
"TtkiLf","01_00363","伊達警察署洞爺湖温泉交番","42.563309","140.815518","洞爺湖町洞爺湖温泉142-151","jisx0401:01/jisx0402:01584","緊急施設/警察","4"
"Bpjbti","01_00364","苫小牧警察署鵡川交番","42.575678","141.930683","むかわ町花園3-21","jisx0401:01/jisx0402:01586","緊急施設/警察","4"
"jli4bl","01_00365","門別警察署富川交番","42.520112","142.026813","日高町富川南2-1-5","jisx0401:01/jisx0402:01601","緊急施設/警察","4"
"1hgWTo","01_00366","浦河警察署堺町交番","42.170868","142.766248","浦河町堺町東1丁目5-24","jisx0401:01/jisx0402:01607","緊急施設/警察","4"
"JdfPBr","01_00367","静内警察署駅前交番","42.336329","142.361552","新ひだか町静内本町5-1-13","jisx0401:01/jisx0402:01610","緊急施設/警察","4"
"r9eIju","01_00368","帯広警察署音更交番","42.992599","143.200406","音更町大通11丁目3-5","jisx0401:01/jisx0402:01631","緊急施設/警察","4"
"95dB1x","01_00369","帯広警察署木野交番","42.950049","143.205297","音更町木野大通東7-1","jisx0401:01/jisx0402:01631","緊急施設/警察","4"
"R1ctJA","01_00370","新得警察署清水交番","43.012309","142.886503","清水町南4条4丁目2-2","jisx0401:26/jisx0402:26107","緊急施設/警察","4"
"yXbmrD","01_00371","帯広警察署芽室交番","42.912015","143.05288","芽室町東3条2丁目17","jisx0401:01/jisx0402:01103","緊急施設/警察","4"
"gTaf9G","01_00372","帯広警察署札内交番","42.913749","143.257656","幕別町札内中央町487","jisx0401:01/jisx0402:01643","緊急施設/警察","4"
"YP97RJ","01_00373","本別警察署足寄交番","43.236637","143.546055","足寄町南7条1丁目1","jisx0401:01/jisx0402:01106","緊急施設/警察","4"
"GL80zM","01_00374","釧路警察署遠矢交番","43.038054","144.456678","釧路町河畔7-52-2","jisx0401:01/jisx0402:01661","緊急施設/警察","4"
"oH6ThP","01_00375","釧路警察署桂交番","43.007333","144.403296","釧路町桂5-1","jisx0401:01/jisx0402:01661","緊急施設/警察","4"
"6D5LZS","01_00376","厚岸警察署本町交番","43.043866","144.850974","厚岸町奔渡1丁目1","jisx0401:01/jisx0402:01662","緊急施設/警察","4"
"Oz4EHV","01_00377","釧路警察署白糠交番","42.954713","144.079144","白糠町東2条南2丁目2-17","jisx0401:27/jisx0402:27145","緊急施設/警察","4"
"wv3xpY","01_00378","中標津警察署中央交番","43.553006","144.982415","中標津町東10条南1丁目1-4","jisx0401:27/jisx0402:27145","緊急施設/警察","4"
"er2q81","01_00379","北警察署茨戸駐在所","43.161496","141.358706","札幌市北区東茨戸46-2","jisx0401:01/jisx0402:01102","緊急施設/警察","5"
"Wn1iQ4","01_00380","函館中央警察署旭岡駐在所","41.801707","140.828895","函館市西旭岡町2-51-6","jisx0401:01/jisx0402:01202","緊急施設/警察","5"
"Ej0by7","01_00381","函館中央警察署臼尻駐在所","41.932306","140.948602","函館市臼尻町119","jisx0401:01/jisx0402:01202","緊急施設/警察","5"
"meZ4ga","01_00382","函館中央警察署亀尾駐在所","41.794389","140.860016","函館市亀尾町58-1","jisx0401:01/jisx0402:01202","緊急施設/警察","5"
"4aXWYd","01_00383","函館中央警察署恵山西駐在所","41.755517","141.077074","函館市中浜町74-1","jisx0401:01/jisx0402:01202","緊急施設/警察","5"
"M6WPGg","01_00384","函館中央警察署恵山駐在所","41.785216","141.105953","函館市日ノ浜町153-1","jisx0401:01/jisx0402:01202","緊急施設/警察","5"
"u2VIoj","01_00385","函館中央警察署戸井西駐在所","41.740605","140.921668","函館市小安町523-9","jisx0401:01/jisx0402:01202","緊急施設/警察","5"
"bYUB6m","01_00386","函館中央警察署戸井駐在所","41.720554","141.01019","函館市浜町16-3","jisx0401:01/jisx0402:01202","緊急施設/警察","5"
"TUTtOp","01_00387","函館中央警察署上湯川駐在所","41.781943","140.809494","函館市上湯川町11-1","jisx0401:01/jisx0402:01202","緊急施設/警察","5"
"BQSmws","01_00388","函館中央警察署石崎駐在所","41.752853","140.883698","函館市石崎町302-1","jisx0401:01/jisx0402:01202","緊急施設/警察","5"
"jMRfev","01_00389","函館中央警察署銭亀駐在所","41.76124","140.832509","函館市銭亀町141-5","jisx0401:01/jisx0402:01202","緊急施設/警察","5"
"1IQ7Wy","01_00390","函館中央警察署椴法華駐在所","41.829509","141.141697","函館市新八幡町130-4","jisx0401:01/jisx0402:01202","緊急施設/警察","5"
"JEP0EB","01_00391","函館中央警察署南茅部駐在所","41.907893","140.975016","函館市川汲町427","jisx0401:01/jisx0402:01202","緊急施設/警察","5"
"rANTmE","01_00392","函館中央警察署尾札部駐在所","41.892617","141.013937","函館市尾札辺町339-1先",,"緊急施設/警察","5"
"9wMM4H","01_00393","小樽警察署オタモイ駐在所","43.223221","140.962114","小樽市オタモイ1-35-19","jisx0401:01/jisx0402:01203","緊急施設/警察","5"
"RsLEMK","01_00394","小樽警察署塩谷駐在所","43.209","140.929617","小樽市塩谷2-15-10","jisx0401:01/jisx0402:01203","緊急施設/警察","5"
"zoKxuN","01_00395","小樽警察署蘭島駐在所","43.197026","140.854345","小樽市蘭島1丁目26－11","jisx0401:01/jisx0402:01203","緊急施設/警察","5"
"hkJqcQ","01_00396","旭川中央警察署神居古潭駐在所","43.721428","142.184037","旭川市神居町神居古潭50-12","jisx0401:01/jisx0402:01204","緊急施設/警察","5"
"ZgIiUT","01_00397","旭川中央警察署東鷹栖駐在所","43.832924","142.409096","旭川市東鷹栖4条4丁目639-324","jisx0401:01/jisx0402:01204","緊急施設/警察","5"
"HcHbCW","01_00398","旭川東警察署旭山駐在所","43.769462","142.468063","旭川市東旭川町日の出271-3","jisx0401:01/jisx0402:01204","緊急施設/警察","5"
"p8G4kZ","01_00399","旭川東警察署旭正駐在所","43.726621","142.454142","旭川市東旭川町旭正214-3","jisx0401:01/jisx0402:01204","緊急施設/警察","5"
"74EX32","01_00400","旭川東警察署西神楽駐在所","43.684941","142.391437","旭川市西神楽北1条2丁目604-1","jisx0401:01/jisx0402:01204","緊急施設/警察","5"
"P0DPL5","01_00401","旭川東警察署千代ヶ岡駐在所","43.64067","142.452824","旭川市西神楽2線25-474-3","jisx0401:01/jisx0402:01204","緊急施設/警察","5"
"wWCIt8","01_00402","旭川東警察署東旭川交番","43.770932","142.431733","旭川市東旭川南1条3丁目2-9","jisx0401:01/jisx0402:01204","緊急施設/警察","4"
"eSBBbb","01_00403","釧路警察署阿寒湖畔駐在所","43.432652","144.099459","釧路市阿寒町阿寒湖温泉2-1-13-1","jisx0401:01/jisx0402:01206","緊急施設/警察","5"
"WOAtTe","01_00404","釧路警察署阿寒駐在所","43.111895","144.123955","釧路市阿寒町中央1-3-19","jisx0401:01/jisx0402:01206","緊急施設/警察","5"
"EKzmBh","01_00405","釧路警察署音別駐在所","42.89158","143.932627","釧路市音別町中園1-155","jisx0401:01/jisx0402:01669","緊急施設/警察","5"
"mGyfjk","01_00406","釧路警察署徹別駐在所","43.198357","144.146504","釧路市阿寒町徹別中央34線6","jisx0401:01/jisx0402:01206","緊急施設/警察","5"
"4Cx81n","01_00407","釧路警察署白樺駐在所","42.959701","144.446849","釧路市白樺台2-24-1","jisx0401:01/jisx0402:01206","緊急施設/警察","5"
"Myw0Jq","01_00408","帯広警察署川西駐在所","42.845059","143.180028","帯広市川西町基線57-35","jisx0401:01/jisx0402:01207","緊急施設/警察","5"
"uuuTrt","01_00409","帯広警察署大正駐在所","42.793197","143.163227","帯広市大正本町西1条2丁目1","jisx0401:01/jisx0402:01107","緊急施設/警察","5"
"cqtM9w","01_00410","北見警察署温根湯駐在所","43.75391049","143.50216134","北見市留辺蘂町松山1-7","jisx0401:01/jisx0402:01208","緊急施設/警察","5"
"UmsERz","01_00411","北見警察署小泉駐在所","43.82376","143.924971","北見市春光町6-2-1","jisx0401:01/jisx0402:01208","緊急施設/警察","5"
"CirxzC","01_00412","北見警察署上常呂駐在所","43.754745","143.834068","北見市上ところ355-8","jisx0401:01/jisx0402:01208","緊急施設/警察","5"
"keqqhF","01_00413","北見警察署常呂駐在所","44.119721","144.070279","北見市常呂町字常呂387","jisx0401:01/jisx0402:01208","緊急施設/警察","5"
"2apiZI","01_00414","北見警察署仁頃駐在所","43.899214","143.900721","北見市仁頃町199-1","jisx0401:01/jisx0402:01208","緊急施設/警察","5"
"K6obHL","01_00415","北見警察署相内駐在所","43.798886","143.751002","北見市相内町111-5","jisx0401:01/jisx0402:01208","緊急施設/警察","5"
"s2n4pO","01_00416","北見警察署端野駐在所","43.859533","143.948903","北見市端野町二区476-4","jisx0401:01/jisx0402:01208","緊急施設/警察","5"
"9YlX7R","01_00417","北見警察署東相内駐在所","43.802974","143.809122","北見市東相内町183-4","jisx0401:01/jisx0402:01208","緊急施設/警察","5"
"RUkPPU","01_00418","夕張警察署紅葉山駐在所","42.93598","142.038648","夕張市紅葉山81-1","jisx0401:01/jisx0402:01209","緊急施設/警察","5"
"zQjIxX","01_00419","夕張警察署沼の沢駐在所","42.955783","142.032368","夕張市沼ノ沢43","jisx0401:01/jisx0402:01209","緊急施設/警察","5"
"hMiBg0","01_00420","夕張警察署南部駐在所","43.020729","142.079952","夕張市南部東町76","jisx0401:01/jisx0402:01209","緊急施設/警察","5"
"ZIhtY3","01_00421","岩見沢警察署栗沢駐在所","43.118923","141.744136","岩見沢市栗沢町東本町3-1","jisx0401:01/jisx0402:01210","緊急施設/警察","5"
"HEgmG6","01_00422","岩見沢警察署桜木駐在所","43.215507","141.764999","岩見沢市桜木1条6丁目2-20","jisx0401:01/jisx0402:01210","緊急施設/警察","5"
"pAffo9","01_00423","岩見沢警察署志文駐在所","43.163336","141.755078","岩見沢市志文町324-2","jisx0401:01/jisx0402:01210","緊急施設/警察","5"
"7we86c","01_00424","岩見沢警察署上志文駐在所","43.162834","141.812684","岩見沢市上志文町48-8","jisx0401:01/jisx0402:01210","緊急施設/警察","5"
"Psd0Of","01_00425","岩見沢警察署上幌向駐在所","43.182555","141.720052","岩見沢市上幌向南1条5丁目690-1","jisx0401:01/jisx0402:01210","緊急施設/警察","5"
"xobTwi","01_00426","岩見沢警察署東駐在所","43.220692","141.800098","岩見沢市東町1条8丁目1363-9","jisx0401:01/jisx0402:01210","緊急施設/警察","5"
"fkaMel","01_00427","岩見沢警察署美流渡駐在所","43.16298","141.913589","岩見沢市栗沢町美流渡本町50-2","jisx0401:01/jisx0402:01210","緊急施設/警察","5"
"Xg9EWo","01_00428","岩見沢警察署北村駐在所","43.263184","141.696632","岩見沢市北村赤川512-3","jisx0401:01/jisx0402:01210","緊急施設/警察","5"
"Fc8xEr","01_00429","岩見沢警察署幌向駐在所","43.150223","141.654503","岩見沢市幌向南1条3丁目336-1","jisx0401:01/jisx0402:01210","緊急施設/警察","5"
"n87qmu","01_00430","網走警察署卯原内駐在所","44.011512","144.114612","網走市字卯原内56","jisx0401:01/jisx0402:01211","緊急施設/警察","5"
"546j4x","01_00431","網走警察署呼人駐在所","43.963519","144.217634","網走市字呼人317-1","jisx0401:01/jisx0402:01211","緊急施設/警察","5"
"N05bMA","01_00432","網走警察署藻琴駐在所","43.967244","144.321348","網走市字藻琴109-2","jisx0401:01/jisx0402:01211","緊急施設/警察","5"
"uW44uD","01_00433","網走警察署大曲駐在所","44.013709","144.233327","網走市大曲1-3-6","jisx0401:01/jisx0402:01211","緊急施設/警察","5"
"cS2XcG","01_00434","網走警察署北浜駐在所","43.954246","144.358067","網走市字北浜112","jisx0401:01/jisx0402:01211","緊急施設/警察","5"
"UO1PUJ","01_00435","留萌警察署港北駐在所","43.951494","141.64313","留萌市元町4-89-1","jisx0401:01/jisx0402:01212","緊急施設/警察","5"
"CK0ICM","01_00436","留萌警察署大和田駐在所","43.915059","141.697535","留萌市大字留萌村字留萌2653-18","jisx0401:01/jisx0402:01212","緊急施設/警察","5"
"kFZBkP","01_00437","留萌警察署幌糠駐在所","43.856706","141.758511","留萌市大字留萌村字幌糠1941","jisx0401:01/jisx0402:01212","緊急施設/警察","5"
"2BYu2S","01_00438","苫小牧警察署勇払駐在所","42.628634","141.724465","苫小牧市字勇払27-1","jisx0401:01/jisx0402:01213","緊急施設/警察","5"
"KxXmKV","01_00439","稚内警察署宗谷駐在所","45.486551","141.880288","稚内市大字宗谷村字宗谷158","jisx0401:01/jisx0402:01214","緊急施設/警察","5"
"stWfsY","01_00440","稚内警察署宗谷岬駐在所","45.520433","141.941027","稚内市宗谷岬5-21","jisx0401:01/jisx0402:01214","緊急施設/警察","5"
"apV8b1","01_00441","稚内警察署沼川駐在所","45.252078","141.8505","稚内市大字声問村字沼川2529","jisx0401:01/jisx0402:01214","緊急施設/警察","5"
"SlU0T4","01_00442","稚内警察署声問駐在所","45.405469","141.751501","稚内市声問3-11-3","jisx0401:01/jisx0402:01214","緊急施設/警察","5"
"AhSTB7","01_00443","稚内警察署野寒布駐在所","45.444633","141.650964","稚内市ノシャップ1-3-5","jisx0401:01/jisx0402:01214","緊急施設/警察","5"
"idRMja","01_00444","稚内警察署勇知駐在所","45.259266","141.686626","稚内市大字抜海村字上ユーチ原野591番地18","jisx0401:01/jisx0402:01214","緊急施設/警察","5"
"09QF1d","01_00445","美唄警察署光珠内駐在所","43.292964","141.847756","美唄市光珠内町北","jisx0401:01/jisx0402:01102","緊急施設/警察","5"
"I5PxJg","01_00446","美唄警察署上美唄駐在所","43.339872","141.781038","美唄市上美唄町2区","jisx0401:01/jisx0402:01215","緊急施設/警察","5"
"q1Oqrj","01_00447","美唄警察署茶志内駐在所","43.37346379","141.87277211","美唄市字チャシュナイ826-7（茶志内町2区）","jisx0401:01/jisx0402:01215","緊急施設/警察","5"
"7XNj9m","01_00448","美唄警察署東明駐在所","43.335143","141.893436","美唄市東明2条2丁目1-6","jisx0401:01/jisx0402:01215","緊急施設/警察","5"
"PTMbRp","01_00449","美唄警察署南美唄駐在所","43.309184","141.874115","美唄市南美唄町大通り3町目","jisx0401:01/jisx0402:01215","緊急施設/警察","5"
"xPL4zs","01_00450","美唄警察署峰延駐在所","43.265716","141.818039","美唄市峰延92","jisx0401:01/jisx0402:01215","緊急施設/警察","5"
"fLJXhv","01_00451","芦別警察署渓水駐在所","43.532612","142.174517","芦別市北7条西3丁目2-3","jisx0401:01/jisx0402:01107","緊急施設/警察","5"
"XHIPZy","01_00452","芦別警察署上芦別駐在所","43.492548","142.202171","芦別市上芦別町157-79","jisx0401:01/jisx0402:01216","緊急施設/警察","5"
"FDHIHB","01_00453","芦別警察署新城駐在所","43.614993","142.201637","芦別市新城町225-2","jisx0401:01/jisx0402:01216","緊急施設/警察","5"
"nzGBpE","01_00454","芦別警察署西芦別駐在所","43.490982","142.172042","芦別市西芦別町51-1","jisx0401:01/jisx0402:01216","緊急施設/警察","5"
"5vFu7H","01_00455","芦別警察署野花南駐在所","43.474627","142.258988","芦別市野花南町982-4","jisx0401:01/jisx0402:01216","緊急施設/警察","5"
"NrEmPK","01_00456","芦別警察署頼城駐在所","43.452057","142.16064","芦別市頼城町4-36","jisx0401:01/jisx0402:01216","緊急施設/警察","5"
"vnDfxN","01_00457","江別警察署角山駐在所","43.114749","141.469606","江別市角山449-5","jisx0401:01/jisx0402:01217","緊急施設/警察","5"
"djC8fQ","01_00458","赤歌警察署共和駐在所","43.580827","142.020309","赤平市共和町227","jisx0401:01/jisx0402:01218","緊急施設/警察","5"
"VfB0XT","01_00459","赤歌警察署平岸駐在所","43.542084","142.126521","赤平市平岸仲町4-2","jisx0401:01/jisx0402:01218","緊急施設/警察","5"
"DbzTFW","01_00460","赤歌警察署茂尻駐在所","43.539222","142.085415","赤平市茂尻中央町北1丁目3-1","jisx0401:01/jisx0402:01218","緊急施設/警察","5"
"l7yMnZ","01_00461","紋別警察署渚滑駐在所","44.371953","143.313707","紋別市渚滑町4-104","jisx0401:01/jisx0402:01219","緊急施設/警察","5"
"33xF62","01_00462","紋別警察署小向駐在所","44.277412","143.452261","紋別市小向193","jisx0401:01/jisx0402:01219","緊急施設/警察","5"
"KZwxO5","01_00463","紋別警察署上渚滑駐在所","44.24577","143.258081","紋別市上渚滑町4-121","jisx0401:01/jisx0402:01219","緊急施設/警察","5"
"sVvqw8","01_00464","士別警察署温根別駐在所","44.175132","142.274278","士別市温根別町南1線6362-1","jisx0401:01/jisx0402:01106","緊急施設/警察","5"
"aRujeb","01_00465","士別警察署上士別駐在所","44.130784","142.488328","士別市上士別町16線南3","jisx0401:01/jisx0402:01106","緊急施設/警察","5"
"SNtbWe","01_00466","士別警察署多寄駐在所","44.239212","142.394543","士別市多寄町36線西4","jisx0401:01/jisx0402:01107","緊急施設/警察","5"
"AJs4Eh","01_00467","士別警察署中士別駐在所","44.17386","142.434514","士別市中士別町4線東3","jisx0401:01/jisx0402:01103","緊急施設/警察","5"
"iFqXmk","01_00468","士別警察署朝日駐在所","44.117066","142.601171","士別市朝日町中央4520","jisx0401:01/jisx0402:01220","緊急施設/警察","5"
"0BpQ4n","01_00469","名寄警察署智恵文駐在所","44.439213","142.404322","名寄市智恵文11線北3","jisx0401:01/jisx0402:01102","緊急施設/警察","5"
"IxoIMq","01_00470","名寄警察署風連旭駐在所","44.27085","142.464895","名寄市風連町字旭2461","jisx0401:01/jisx0402:01221","緊急施設/警察","5"
"qtnBut","01_00471","名寄警察署風連駐在所","44.292509","142.420485","名寄市風連町本町5-1","jisx0401:01/jisx0402:01221","緊急施設/警察","5"
"8pmucw","01_00472","三笠警察署岡山駐在所","43.237246","141.817291","三笠市岡山54-1","jisx0401:01/jisx0402:01222","緊急施設/警察","5"
"QllmUz","01_00473","三笠警察署幾春別駐在所","43.260324","141.955894","三笠市幾春別滝見町319-8","jisx0401:01/jisx0402:01222","緊急施設/警察","5"
"yhkfCC","01_00474","三笠警察署唐松駐在所","43.251994","141.914282","三笠市唐松栄町1-180-1","jisx0401:01/jisx0402:01222","緊急施設/警察","5"
"gdj8kF","01_00475","三笠警察署幌内駐在所","43.234386","141.885563","三笠市幌内住吉町1-1","jisx0401:01/jisx0402:01222","緊急施設/警察","5"
"Y9i12I","01_00476","三笠警察署弥生駐在所","43.258015","141.939362","三笠市弥生橘町72-8","jisx0401:01/jisx0402:01222","緊急施設/警察","5"
"G5gTKL","01_00477","根室警察署花咲駐在所","43.290836","145.584677","根室市花咲港164-3","jisx0401:01/jisx0402:01223","緊急施設/警察","5"
"o1fMsO","01_00478","根室警察署厚床駐在所","43.230806","145.251376","根室市厚床1-36","jisx0401:01/jisx0402:01223","緊急施設/警察","5"
"5XeFaR","01_00479","根室警察署歯舞駐在所","43.341334","145.753187","根室市歯舞3丁目10","jisx0401:01/jisx0402:01223","緊急施設/警察","5"
"NTdxSU","01_00480","根室警察署納沙布駐在所","43.38533","145.812486","根室市納沙布33","jisx0401:01/jisx0402:01223","緊急施設/警察","5"
"vPcqAX","01_00481","根室警察署落石駐在所","43.186708","145.506215","根室市落石東392","jisx0401:01/jisx0402:01223","緊急施設/警察","5"
"dLbjj0","01_00482","千歳警察署支笏湖駐在所","42.773782","141.405466","千歳市支笏湖温泉番外地","jisx0401:01/jisx0402:01224","緊急施設/警察","5"
"VHac13","01_00483","千歳警察署泉郷駐在所","42.907197","141.720676","千歳市泉郷121-12","jisx0401:01/jisx0402:01224","緊急施設/警察","5"
"DD94J6","01_00484","滝川警察署江部乙駐在所","43.624959","141.941452","滝川市江部乙町東12-1-6","jisx0401:01/jisx0402:01225","緊急施設/警察","5"
"lz7Xr9","01_00485","滝川警察署泉町駐在所","43.572351","141.892764","滝川市泉町1丁目11－35","jisx0401:01/jisx0402:01225","緊急施設/警察","5"
"3v6Q9c","01_00486","滝川警察署東滝川駐在所","43.571965","141.98184","滝川市東滝川町2-1-1","jisx0401:01/jisx0402:01225","緊急施設/警察","5"
"Lr5IRf","01_00487","滝川警察署北滝の川駐在所","43.592628","141.925149","滝川市滝の川町西8-1-32","jisx0401:01/jisx0402:01225","緊急施設/警察","5"
"tn4Bzi","01_00488","砂川警察署空知太駐在所","43.52905","141.921265","砂川市空知太東1条2丁目375-8","jisx0401:01/jisx0402:01226","緊急施設/警察","5"
"bj3uhl","01_00489","赤歌警察署文珠駐在所","43.493278","141.989541","歌志内市字文珠226","jisx0401:01/jisx0402:01227","緊急施設/警察","5"
"Tf2mZo","01_00490","深川警察署一己駐在所","43.726874","142.042505","深川市北光町2丁目8-38","jisx0401:01/jisx0402:01228","緊急施設/警察","5"
"Bb1fHr","01_00491","深川警察署稲田駐在所","43.659235","141.989113","深川市音江町字稲田1616-1","jisx0401:01/jisx0402:01228","緊急施設/警察","5"
"j708pu","01_00492","深川警察署音江駐在所","43.696039","142.076242","深川市音江町2丁目5-37","jisx0401:01/jisx0402:01228","緊急施設/警察","5"
"12Z17x","01_00493","深川警察署更進駐在所","43.68795","142.175209","深川市音江町字更進762-6","jisx0401:01/jisx0402:01228","緊急施設/警察","5"
"IYXTPA","01_00494","深川警察署多度志駐在所","43.809025","142.024962","深川市多度志1220","jisx0401:01/jisx0402:01228","緊急施設/警察","5"
"qUWMxD","01_00495","深川警察署鷹泊駐在所","43.886907","142.101812","深川市鷹泊386","jisx0401:01/jisx0402:01228","緊急施設/警察","5"
"8QVFfG","01_00496","深川警察署納内駐在所","43.728571","142.13139","深川市納内町2丁目13-1","jisx0401:01/jisx0402:01228","緊急施設/警察","5"
"QMUxXJ","01_00497","富良野警察署山部駐在所","43.244796","142.382082","富良野市山部東町2-23","jisx0401:01/jisx0402:01229","緊急施設/警察","5"
"yITqFM","01_00498","富良野警察署東山駐在所","43.215048","142.441126","富良野市字東山5063","jisx0401:01/jisx0402:01229","緊急施設/警察","5"
"gESjnP","01_00499","富良野警察署麓郷駐在所","43.301584","142.525371","富良野市字麓郷市街地5","jisx0401:01/jisx0402:01229","緊急施設/警察","5"
"YARc5S","01_00500","千歳警察署中恵庭駐在所","42.906165","141.605381","恵庭市上山口24","jisx0401:01/jisx0402:01231","緊急施設/警察","5"
"GwQ4NV","01_00501","千歳警察署島松駐在所","42.921563","141.575405","恵庭市島松本町1-7-15","jisx0401:01/jisx0402:01231","緊急施設/警察","5"
"osOXvY","01_00502","伊達警察署黄金駐在所","42.385616","140.909398","伊達市南黄金町44-34","jisx0401:07/jisx0402:07213","緊急施設/警察","5"
"6oNQe1","01_00503","伊達警察署大滝駐在所","42.673093","141.082495","伊達市大滝区本町1番地1本町東団地57-2","jisx0401:07/jisx0402:07213","緊急施設/警察","5"
"OkMIW4","01_00504","伊達警察署長和駐在所","42.48919612","140.83712482","伊達市長和町420番地1","jisx0401:07/jisx0402:07213","緊急施設/警察","5"
"wgLBE7","01_00505","伊達警察署有珠駐在所","42.516394","140.790152","伊達市有珠町254-2","jisx0401:07/jisx0402:07213","緊急施設/警察","5"
"ecKuma","01_00506","厚別警察署西の里駐在所","43.01408693","141.5009158","北広島市西の里南1丁目2-28","jisx0401:01/jisx0402:01234","緊急施設/警察","5"
"W8Jn4d","01_00507","厚別警察署輪厚駐在所","42.941546","141.503972","北広島市輪厚中央5-4-4","jisx0401:01/jisx0402:01234","緊急施設/警察","5"
"E4IfMg","01_00508","北警察署厚田駐在所","43.399574","141.435466","石狩市厚田区厚田43-4-5","jisx0401:01/jisx0402:01235","緊急施設/警察","5"
"m0H8uj","01_00509","北警察署石狩駐在所","43.243527","141.350549","石狩市親船町14-1","jisx0401:01/jisx0402:01235","緊急施設/警察","5"
"3WG1cm","01_00510","北警察署柏木駐在所","43.578613","141.387056","石狩市浜益区柏木122-3","jisx0401:01/jisx0402:01235","緊急施設/警察","5"
"LSETUp","01_00511","北警察署八幡駐在所","43.244958","141.370646","石狩市八幡2-332-12","jisx0401:01/jisx0402:01235","緊急施設/警察","5"
"tODMCs","01_00512","北警察署浜益駐在所","43.601283","141.38575","石狩市浜益区浜益334-1","jisx0401:01/jisx0402:01235","緊急施設/警察","5"
"bKCFkv","01_00513","北警察署望来駐在所","43.316012","141.419093","石狩市厚田区望来119","jisx0401:01/jisx0402:01235","緊急施設/警察","5"
"TGBy2y","01_00514","函館中央警察署大野駐在所","41.884024","140.642602","北斗市本町178-1","jisx0401:01/jisx0402:01236","緊急施設/警察","5"
"BCAqKB","01_00515","函館中央警察署当別駐在所","41.737735","140.58478","北斗市当別3-3-9","jisx0401:01/jisx0402:01236","緊急施設/警察","5"
"jyzjsE","01_00516","函館中央警察署茂辺地駐在所","41.766037","140.603471","北斗市茂辺地2-5-37","jisx0401:01/jisx0402:01236","緊急施設/警察","5"
"1uycaH","01_00517","北警察署太美駐在所","43.1911","141.447518","当別町太美町1481-2","jisx0401:01/jisx0402:01303","緊急施設/警察","5"
"Jqx4SK","01_00518","北警察署中小屋駐在所","43.305038","141.604166","当別町字中小屋1702","jisx0401:01/jisx0402:01303","緊急施設/警察","5"
"rmvXAN","01_00519","北警察署当別駐在所","43.220349","141.515483","当別町弥生53-43","jisx0401:01/jisx0402:01303","緊急施設/警察","5"
"9iuQiQ","01_00520","江別警察署新篠津駐在所","43.224409","141.649055","新篠津村第47線北11","jisx0401:01/jisx0402:01421","緊急施設/警察","5"
"RetJ0T","01_00521","松前警察署江良駐在所","41.550183","139.992587","松前町字江良910-1","jisx0401:01/jisx0402:01331","緊急施設/警察","5"
"zasBIW","01_00522","松前警察署小島駐在所","41.481219","140.024948","松前町字赤神110-1","jisx0401:01/jisx0402:01331","緊急施設/警察","5"
"h6ruqZ","01_00523","松前警察署白神駐在所","41.41804","140.164438","松前町字荒谷148-1","jisx0401:01/jisx0402:01331","緊急施設/警察","5"
"Z2qn92","01_00524","松前警察署吉岡駐在所","41.436155","140.230219","福島町字吉野5298",,"緊急施設/警察","5"
"GYpfR5","01_00525","木古内警察署知内駐在所","41.594579","140.416438","知内町字元町250-5","jisx0401:01/jisx0402:01333","緊急施設/警察","5"
"oUo8z8","01_00526","木古内警察署涌元駐在所","41.564997","140.42795","知内町字涌元152-1","jisx0401:01/jisx0402:01333","緊急施設/警察","5"
"6Qn1hb","01_00527","木古内警察署泉沢駐在所","41.699958","140.505066","木古内町字泉沢159－2","jisx0401:01/jisx0402:01334","緊急施設/警察","5"
"OMlTZe","01_00528","函館中央警察署七飯南駐在所","41.86479","140.721917","七飯町大川6-15-1","jisx0401:01/jisx0402:01337","緊急施設/警察","5"
"wIkMHh","01_00529","函館中央警察署大沼駐在所","41.980267","140.673704","七飯町字大沼町254-3","jisx0401:01/jisx0402:01337","緊急施設/警察","5"
"eEjFpk","01_00530","函館中央警察署峠下駐在所","41.926326","140.654459","七飯町字峠下304-3","jisx0401:01/jisx0402:01337","緊急施設/警察","5"
"WAiy7n","01_00531","森警察署鹿部駐在所","42.034003","140.820138","鹿部町鹿部154-3","jisx0401:01/jisx0402:01343","緊急施設/警察","5"
"EwhqPq","01_00532","森警察署駒ヶ岳駐在所","42.034758","140.608262","森町字駒ケ岳225-53","jisx0401:01/jisx0402:01345","緊急施設/警察","5"
"msgjxt","01_00533","森警察署砂原駐在所","42.124617","140.666904","森町字砂原2丁目176-5",,"緊急施設/警察","5"
"4ofcfw","01_00534","森警察署石谷駐在所","42.135244","140.507127","森町字本茅部町163","jisx0401:01/jisx0402:01345","緊急施設/警察","5"
"Mke4Xz","01_00535","八雲警察署熊石駐在所","42.129144","139.97767","八雲町熊石根崎町71","jisx0401:01/jisx0402:01346","緊急施設/警察","5"
"ugcXFC","01_00536","八雲警察署相沼駐在所","42.07073971","140.06827902","八雲町熊石相沼町1-5","jisx0401:01/jisx0402:01346","緊急施設/警察","5"
"ccbQnF","01_00537","八雲警察署野田生駐在所","42.218508","140.379078","八雲町野田生246-1","jisx0401:01/jisx0402:01346","緊急施設/警察","5"
"U8aJ5I","01_00538","八雲警察署落部駐在所","42.189845","140.425607","八雲町落部12","jisx0401:01/jisx0402:01346","緊急施設/警察","5"
"C49BNL","01_00539","八雲警察署国縫駐在所","42.435621","140.321485","長万部町字国縫56-1","jisx0401:01/jisx0402:01347","緊急施設/警察","5"
"k08uvO","01_00540","八雲警察署静狩駐在所","42.586748","140.467274","長万部町字静狩52-8","jisx0401:01/jisx0402:01347","緊急施設/警察","5"
"1W7ndR","01_00541","江差警察署水堀駐在所","41.934433","140.150086","江差町水堀町11-3","jisx0401:01/jisx0402:01361","緊急施設/警察","5"
"JS6fVU","01_00542","江差警察署上ノ国駐在所","41.802769","140.121091","上ノ国町字大留174","jisx0401:01/jisx0402:01362","緊急施設/警察","5"
"rO58DX","01_00543","江差警察署石崎駐在所","41.702389","140.027854","上ノ国町字石崎309-12","jisx0401:01/jisx0402:01362","緊急施設/警察","5"
"9K41m0","01_00544","江差警察署滝沢駐在所","41.752007","140.0618","上ノ国町字扇石512","jisx0401:01/jisx0402:01362","緊急施設/警察","5"
"RG2U43","01_00545","江差警察署中須田駐在所","41.780995","140.153729","上ノ国町字中須田495-4","jisx0401:01/jisx0402:01362","緊急施設/警察","5"
"zC1MM6","01_00546","江差警察署湯ノ岱駐在所","41.750847","140.241757","上ノ国町字湯ノ岱913-6","jisx0401:01/jisx0402:01362","緊急施設/警察","5"
"hy0Fu9","01_00547","江差警察署館駐在所","41.888622","140.32908","厚沢部町館町129-4","jisx0401:01/jisx0402:01363","緊急施設/警察","5"
"ZtZycc","01_00548","江差警察署厚沢部駐在所","41.920092","140.223605","厚沢部町本町181-22","jisx0401:01/jisx0402:01363","緊急施設/警察","5"
"HpYqUf","01_00549","江差警察署鶉駐在所","41.933898","140.324846","厚沢部町鶉町213","jisx0401:01/jisx0402:01363","緊急施設/警察","5"
"plXjCi","01_00550","江差警察署乙部駐在所","41.970876","140.13858","乙部町字緑町242-3",,"緊急施設/警察","5"
"7hWckl","01_00551","江差警察署豊浜駐在所","42.047325","140.082976","乙部町字豊浜28-2",,"緊急施設/警察","5"
"PdV52o","01_00552","江差警察署奥尻駐在所","42.172042","139.513652","奥尻町字奥尻810-1","jisx0401:01/jisx0402:01367","緊急施設/警察","5"
"x9TXKr","01_00553","江差警察署青苗駐在所","42.060774","139.447275","奥尻町字青苗411-52","jisx0401:01/jisx0402:01367","緊急施設/警察","5"
"f5SQsu","01_00554","せたな警察署宮野駐在所","42.22886","139.875781","せたな町大成区宮野128-2","jisx0401:01/jisx0402:01371","緊急施設/警察","5"
"X1RJax","01_00555","せたな警察署若松駐在所","42.35759","139.90755","せたな町北桧山区若松232-1","jisx0401:01/jisx0402:01371","緊急施設/警察","5"
"EXQBSA","01_00556","せたな警察署瀬棚駐在所","42.449206","139.852792","せたな町瀬棚区本町792-21","jisx0401:01/jisx0402:01371","緊急施設/警察","5"
"mTPuAD","01_00557","せたな警察署大成駐在所","42.225435","139.820647","せたな町大成区都239-1","jisx0401:01/jisx0402:01371","緊急施設/警察","5"
"4POniG","01_00558","寿都警察署島牧駐在所","42.700304","140.060592","島牧村字泊83-79","jisx0401:01/jisx0402:01391","緊急施設/警察","5"
"MLNg0J","01_00559","寿都警察署本目駐在所","42.747861","140.133626","島牧村字本目88-2","jisx0401:01/jisx0402:01391","緊急施設/警察","5"
"uHM8IM","01_00560","寿都警察署磯谷駐在所","42.86352","140.35199","寿都町字磯谷町能津登56","jisx0401:01/jisx0402:01392","緊急施設/警察","5"
"cDL1qP","01_00561","寿都警察署湯別駐在所","42.757197","140.276669","寿都町字湯別町下湯別86-2","jisx0401:01/jisx0402:01392","緊急施設/警察","5"
"UzJU8S","01_00562","寿都警察署黒松内駐在所","42.667684","140.30637","黒松内町字黒松内281-11","jisx0401:01/jisx0402:01393","緊急施設/警察","5"
"CvIMQV","01_00563","寿都警察署白井川駐在所","42.671018","140.381709","黒松内町字白井川17-65","jisx0401:01/jisx0402:01393","緊急施設/警察","5"
"krHFyY","01_00564","倶知安警察署港駐在所","42.878907","140.368238","蘭越町港町1436-2",,"緊急施設/警察","5"
"2nGyh1","01_00565","倶知安警察署昆布駐在所","42.7982","140.593917","蘭越町昆布町373",,"緊急施設/警察","5"
"KjFqZ4","01_00566","倶知安警察署目名駐在所","42.763173","140.467041","蘭越町目名町680",,"緊急施設/警察","5"
"sfEjH7","01_00567","倶知安警察署蘭越駐在所","42.805114","140.525951","蘭越町蘭越町228",,"緊急施設/警察","5"
"abDcpa","01_00568","倶知安警察署ニセコ駐在所","42.803841","140.687993","ニセコ町本通105-1","jisx0401:01/jisx0402:01395","緊急施設/警察","5"
"S7C57d","01_00569","倶知安警察署真狩駐在所","42.766799","140.802013","真狩村字真狩29-24","jisx0401:01/jisx0402:01396","緊急施設/警察","5"
"A3AXPg","01_00570","倶知安警察署留寿都駐在所","42.734347","140.874863","留寿都村字留寿都5-1","jisx0401:01/jisx0402:01397","緊急施設/警察","5"
"hZzQxj","01_00571","倶知安警察署喜茂別駐在所","42.795794","140.93936","喜茂別町字喜茂別290-3","jisx0401:01/jisx0402:01398","緊急施設/警察","5"
"ZVyJfm","01_00572","倶知安警察署鈴川駐在所","42.766814","140.976037","喜茂別町字鈴川22","jisx0401:01/jisx0402:01398","緊急施設/警察","5"
"HRxBXp","01_00573","倶知安警察署京極駐在所","42.859063","140.882668","京極町字三崎91-4","jisx0401:01/jisx0402:01399","緊急施設/警察","5"
"pNwuFs","01_00574","倶知安警察署寒別駐在所","42.896587","140.834987","倶知安町字寒別679-1","jisx0401:01/jisx0402:01400","緊急施設/警察","5"
"7Jvnnv","01_00575","岩内警察署国富駐在所","42.983515","140.652902","共和町国富858-1","jisx0401:01/jisx0402:01401","緊急施設/警察","5"
"PFug5y","01_00576","岩内警察署小沢駐在所","42.973171","140.673278","共和町小沢126-73",,"緊急施設/警察","5"
"xBt8NB","01_00577","岩内警察署前田駐在所","42.979454","140.581385","共和町前田50",,"緊急施設/警察","5"
"fxs1vE","01_00578","岩内警察署発足駐在所","43.0154851","140.56862861","共和町発足128-3","jisx0401:01/jisx0402:01401","緊急施設/警察","5"
"XtqUdH","01_00579","岩内警察署野束駐在所","42.976401","140.490916","岩内町字野束47-1","jisx0401:01/jisx0402:01402","緊急施設/警察","5"
"FppMVK","01_00580","岩内警察署泊駐在所","43.062349","140.497831","泊村大字茅沼村字臼別59-10",,"緊急施設/警察","5"
"nloFDN","01_00581","岩内警察署神恵内駐在所","43.143741","140.43027","神恵内村大字神恵内村81-4",,"緊急施設/警察","5"
"5hnylQ","01_00582","余市警察署入舸駐在所","43.36647","140.473112","積丹町大字入舸町52","jisx0401:01/jisx0402:01405","緊急施設/警察","5"
"Ndmr3T","01_00583","余市警察署美国駐在所","43.298147","140.598248","積丹町大字美国町字船澗47","jisx0401:01/jisx0402:01405","緊急施設/警察","5"
"v9ljLW","01_00584","余市警察署余別駐在所","43.326137","140.379205","積丹町大字余別町255-1","jisx0401:01/jisx0402:01405","緊急施設/警察","5"
"d5kctZ","01_00586","余市警察署古平駐在所","43.266116","140.639522","古平町大字浜町40","jisx0401:01/jisx0402:01406","緊急施設/警察","5"
"V1j5c2","01_00587","余市警察署銀山駐在所","43.044677","140.729697","仁木町銀山2-521",,"緊急施設/警察","5"
"CXhXU5","01_00588","余市警察署仁木駐在所","43.160966","140.773453","仁木町北町6-25",,"緊急施設/警察","5"
"kTgQC8","01_00589","余市警察署沢町駐在所","43.213822","140.771897","余市町港町211-43","jisx0401:01/jisx0402:01408","緊急施設/警察","5"
"2PfJkb","01_00590","余市警察署赤井川駐在所","43.082703","140.815966","赤井川村字赤井川84-68","jisx0401:01/jisx0402:01409","緊急施設/警察","5"
"KLeC2e","01_00591","栗山警察署南幌駐在所","43.064676","141.652813","南幌町栄町4-1-5","jisx0401:01/jisx0402:01423","緊急施設/警察","5"
"sHduKh","01_00592","砂川警察署下鶉駐在所","43.482061","141.953075","上砂川町鶉37-1",,"緊急施設/警察","5"
"aDcnsk","01_00593","砂川警察署上砂川駐在所","43.48241","141.987398","上砂川町字上砂川町254-1",,"緊急施設/警察","5"
"Szbgan","01_00594","栗山警察署三川駐在所","42.945556","141.806055","由仁町三川泉町63","jisx0401:01/jisx0402:01427","緊急施設/警察","5"
"Ava8Sq","01_00595","栗山警察署川端駐在所","42.916923","141.894187","由仁町川端848-1","jisx0401:01/jisx0402:01427","緊急施設/警察","5"
"ir91At","01_00596","栗山警察署由仁駐在所","43.011908","141.78572","由仁町中央353-4","jisx0401:01/jisx0402:01427","緊急施設/警察","5"
"0n7Uiw","01_00597","栗山警察署長沼交番","43.011878","141.691813","長沼町錦町北1-2-18","jisx0401:01/jisx0402:01428","緊急施設/警察","4"
"Ij6N0z","01_00598","栗山警察署南長沼駐在所","42.963347","141.681912","長沼町430-30",,"緊急施設/警察","5"
"qf5FIC","01_00599","栗山警察署北長沼駐在所","43.060516","141.726712","長沼町字馬追原野1545-114",,"緊急施設/警察","5"
"8b4yqF","01_00600","栗山警察署角田駐在所","43.03074","141.808328","栗山町角田28-1",,"緊急施設/警察","5"
"Q73r8I","01_00601","栗山警察署継立駐在所","43.021437","141.864073","栗山町字継立364","jisx0401:01/jisx0402:01429","緊急施設/警察","5"
"y32jQL","01_00602","岩見沢警察署月形駐在所","43.340036","141.67502","月形町1468-19","jisx0401:01/jisx0402:01430","緊急施設/警察","5"
"fZ1cyO","01_00603","岩見沢警察署札比内駐在所","43.371368","141.74415","月形町字札比内1001-21","jisx0401:01/jisx0402:01430","緊急施設/警察","5"
"XV05gR","01_00604","砂川警察署浦臼駐在所","43.435335","141.822447","浦臼町字浦臼内172-61","jisx0401:01/jisx0402:01431","緊急施設/警察","5"
"FQYXYU","01_00605","砂川警察署晩生内駐在所","43.399504","141.779841","浦臼町晩生内228-661","jisx0401:01/jisx0402:01431","緊急施設/警察","5"
"nMXQGX","01_00606","滝川警察署花月駐在所","43.497857","141.862884","新十津川町字花月196-14","jisx0401:01/jisx0402:01432","緊急施設/警察","5"
"5IWJp0","01_00607","滝川警察署新十津川町駐在所","43.54405","141.884404","新十津川町字中央311-1","jisx0401:01/jisx0402:01432","緊急施設/警察","5"
"NEVC73","01_00608","滝川警察署大和駐在所","43.591848","141.870766","新十津川町字大和93-15","jisx0401:01/jisx0402:01432","緊急施設/警察","5"
"vAUuP6","01_00609","深川警察署妹背牛駐在所","43.69098","141.964697","妹背牛町字妹背牛417","jisx0401:01/jisx0402:01433","緊急施設/警察","5"
"dwTnx9","01_00610","深川警察署秩父別駐在所","43.766527","141.959777","秩父別町1875番地の12","jisx0401:01/jisx0402:01434","緊急施設/警察","5"
"VsSgfc","01_00611","深川警察署雨竜駐在所","43.644676","141.888561","雨竜町字満寿33-27","jisx0401:01/jisx0402:01436","緊急施設/警察","5"
"DoR8Xf","01_00613","沼田警察署碧水駐在所","43.768693","141.878769","北竜町字碧水15-2内","jisx0401:01/jisx0402:01437","緊急施設/警察","5"
"lkQ1Fi","01_00614","沼田警察署和駐在所","43.732988","141.878359","北竜町字和27-7","jisx0401:01/jisx0402:01437","緊急施設/警察","5"
"3gOUnl","01_00615","沼田警察署共成駐在所","43.817619","141.999534","沼田町字共成212-2","jisx0401:01/jisx0402:01438","緊急施設/警察","5"
"LcNN5o","01_00616","沼田警察署恵比島駐在所","43.850571","141.881306","沼田町字恵比島357-4","jisx0401:01/jisx0402:01438","緊急施設/警察","5"
"t8MFNr","01_00617","士別警察署朱鞠内駐在所","44.280505","142.161254","幌加内町字朱鞠内","jisx0401:01/jisx0402:01439","緊急施設/警察","5"
"b4Lyvu","01_00618","士別警察署幌加内駐在所","44.009562","142.154494","幌加内町字幌加内","jisx0401:01/jisx0402:01439","緊急施設/警察","5"
"T0Krdx","01_00619","旭川中央警察署鷹栖駐在所","43.844393","142.354931","鷹栖町南1条3丁目1-16","jisx0401:01/jisx0402:01106","緊急施設/警察","5"
"AWJjVA","01_00620","旭川中央警察署北斗駐在所","43.877419","142.371372","鷹栖町13線15",,"緊急施設/警察","5"
"iSIcDD","01_00621","旭川中央警察署北野駐在所","43.821062","142.33524","鷹栖町北野東3条1丁目1-6","jisx0401:01/jisx0402:01452","緊急施設/警察","5"
"0OH5lG","01_00622","旭川東警察署志比内駐在所","43.645006","142.581727","東神楽町字志比内72","jisx0401:01/jisx0402:01453","緊急施設/警察","5"
"IKFY3J","01_00623","旭川東警察署東神楽駐在所","43.699192","142.452653","東神楽町北1条西1丁目7-6","jisx0401:01/jisx0402:01107","緊急施設/警察","5"
"qGEQLM","01_00625","旭川東警察署宇園別駐在所","43.836166","142.474442","当麻町宇園別2区","jisx0401:01/jisx0402:01454","緊急施設/警察","5"
"8CDJtP","01_00626","旭川東警察署当麻駐在所","43.826041","142.512556","当麻町4条東2丁目1-17","jisx0401:01/jisx0402:01103","緊急施設/警察","5"
"QyCCbS","01_00627","旭川中央警察署比布駐在所","43.874479","142.478001","比布町北町1-1-5","jisx0401:01/jisx0402:01455","緊急施設/警察","5"
"yuBuTV","01_00628","旭川中央警察署蘭留駐在所","43.924806","142.476081","比布町北9線14","jisx0401:01/jisx0402:01102","緊急施設/警察","5"
"gqAnBY","01_00629","旭川東警察署愛山駐在所","43.849433","142.694262","愛別町字愛山728-7","jisx0401:01/jisx0402:01456","緊急施設/警察","5"
"Ymzgk1","01_00630","旭川東警察署愛別駐在所","43.905617","142.579406","愛別町字本町346","jisx0401:01/jisx0402:01456","緊急施設/警察","5"
"Giy924","01_00631","旭川東警察署層雲峡駐在所","43.72604","142.948082","上川町字層雲峡","jisx0401:01/jisx0402:01457","緊急施設/警察","5"
"oex1K7","01_00632","旭川東警察署東川西駐在所","43.708664","142.487093","東川町西町8丁目2-11","jisx0401:01/jisx0402:01458","緊急施設/警察","5"
"6avUsa","01_00633","旭川東警察署東川駐在所","43.698666","142.50587","東川町北町1-2-1","jisx0401:01/jisx0402:01458","緊急施設/警察","5"
"O6uNad","01_00634","富良野警察署中富良野駐在所","43.406162","142.424118","中富良野町本町6-45","jisx0401:01/jisx0402:01461","緊急施設/警察","5"
"w2tFSg","01_00635","富良野警察署幾寅駐在所","43.163974","142.568865","南富良野町字幾寅744-3","jisx0401:01/jisx0402:01462","緊急施設/警察","5"
"dYsyAj","01_00636","富良野警察署金山駐在所","43.135945","142.415049","南富良野町字金山1119-5","jisx0401:01/jisx0402:01462","緊急施設/警察","5"
"VUrrim","01_00637","富良野警察署落合駐在所","43.123788","142.667443","南富良野町字落合1180-4","jisx0401:01/jisx0402:01462","緊急施設/警察","5"
"DQqk0p","01_00638","富良野警察署占冠駐在所","42.978406","142.402809","占冠村字中央","jisx0401:01/jisx0402:01463","緊急施設/警察","5"
"lMpcIs","01_00639","士別警察署和寒駐在所","44.024904","142.412247","和寒町字西町166","jisx0401:01/jisx0402:01464","緊急施設/警察","5"
"3Io5qv","01_00640","士別警察署剣淵駐在所","44.098275","142.362743","剣淵町仲町7-11","jisx0401:01/jisx0402:01465","緊急施設/警察","5"
"LEmY8y","01_00641","名寄警察署一の橋駐在所","44.318828","142.768838","下川町一の橋335","jisx0401:01/jisx0402:01468","緊急施設/警察","5"
"tAlQQB","01_00642","名寄警察署下川駐在所","44.304713","142.630738","下川町西町217",,"緊急施設/警察","5"
"bwkJyE","01_00643","美深警察署恩根内駐在所","44.596724","142.302305","美深町字恩根内91-45","jisx0401:01/jisx0402:01469","緊急施設/警察","5"
"TsjCgH","01_00644","美深警察署音威子府駐在所","44.726792","142.260216","音威子府村字音威子府437","jisx0401:01/jisx0402:01470","緊急施設/警察","5"
"BoiuYK","01_00645","美深警察署佐久駐在所","44.742783","142.047737","中川町字佐久163","jisx0401:01/jisx0402:01471","緊急施設/警察","5"
"jkhnGN","01_00646","美深警察署中川駐在所","44.809554","142.072618","中川町字中川394","jisx0401:01/jisx0402:01471","緊急施設/警察","5"
"1gggoQ","01_00647","留萌警察署舎熊駐在所","43.873865","141.587553","増毛町舎熊342","jisx0401:01/jisx0402:01481","緊急施設/警察","5"
"Jcf96T","01_00648","留萌警察署増毛駐在所","43.856315","141.516956","増毛町暑寒町1-6","jisx0401:01/jisx0402:01481","緊急施設/警察","5"
"r8e1OW","01_00649","留萌警察署別苅駐在所","43.836477","141.494922","増毛町別苅41-17","jisx0401:01/jisx0402:01481","緊急施設/警察","5"
"94cUwZ","01_00650","留萌警察署鬼鹿駐在所","44.153732","141.656247","小平町大字鬼鹿字港町123-1",,"緊急施設/警察","5"
"R0bNf2","01_00651","留萌警察署小平駐在所","44.014109","141.662074","小平町字小平町129-2",,"緊急施設/警察","5"
"yWaFX5","01_00653","羽幌警察署古丹別駐在所","44.264217","141.715989","苫前町字古丹別255-1","jisx0401:01/jisx0402:01483","緊急施設/警察","5"
"gS9yF8","01_00654","羽幌警察署苫前駐在所","44.310372","141.655521","苫前町字苫前236-2","jisx0401:01/jisx0402:01483","緊急施設/警察","5"
"YO8rnb","01_00655","羽幌警察署力昼駐在所","44.229716","141.656832","苫前町字力昼284-5","jisx0401:01/jisx0402:01483","緊急施設/警察","5"
"GK7k5e","01_00656","羽幌警察署焼尻駐在所","44.43896","141.427033","羽幌町大字焼尻字東浜182","jisx0401:01/jisx0402:01484","緊急施設/警察","5"
"oG6cNh","01_00658","羽幌警察署天売駐在所","44.426348","141.328741","羽幌町大字天売字和浦109","jisx0401:01/jisx0402:01484","緊急施設/警察","5"
"6C55vk","01_00659","羽幌警察署初山別駐在所","44.533017","141.76655","初山別村字初山別90-4","jisx0401:01/jisx0402:01485","緊急施設/警察","5"
"Oy3Ydn","01_00660","羽幌警察署有明駐在所","44.450165","141.757168","初山別村字有明61","jisx0401:01/jisx0402:01485","緊急施設/警察","5"
"wu2QVq","01_00661","天塩警察署遠別駐在所","44.723833","141.797315","遠別町字本町4","jisx0401:01/jisx0402:01486","緊急施設/警察","5"
"eq1JDt","01_00662","天塩警察署雄信内駐在所","44.897955","141.918682","天塩町字オヌプナイ","jisx0401:01/jisx0402:01487","緊急施設/警察","5"
"Wm0Clw","01_00663","天塩警察署幌延駐在所","45.016716","141.847931","幌延町宮園町14","jisx0401:01/jisx0402:01520","緊急施設/警察","5"
"EhZv3z","01_00664","天塩警察署問寒別駐在所","44.913596","142.024976","幌延町字問寒別31","jisx0401:01/jisx0402:01520","緊急施設/警察","5"
"mdYnLC","01_00665","稚内警察署鬼志別駐在所","45.3311","142.11744","猿払村鬼志別東町25","jisx0401:01/jisx0402:01511","緊急施設/警察","5"
"49XgtF","01_00666","稚内警察署知来別駐在所","45.380515","142.088637","猿払村知来別49","jisx0401:01/jisx0402:01511","緊急施設/警察","5"
"M5W9bI","01_00667","枝幸警察署浜頓別駐在所","45.125663","142.367982","浜頓別町大通5-1","jisx0401:01/jisx0402:01512","緊急施設/警察","5"
"u1V1TL","01_00668","枝幸警察署小頓別駐在所","44.828199","142.309845","中頓別町字小頓別233-1","jisx0401:01/jisx0402:01513","緊急施設/警察","5"
"bXTUBO","01_00669","枝幸警察署中頓別駐在所","44.970988","142.291143","中頓別町字中頓別155-5","jisx0401:01/jisx0402:01513","緊急施設/警察","5"
"TTSNjR","01_00670","枝幸警察署乙忠部駐在所","44.779685","142.720362","枝幸町乙忠部874","jisx0401:01/jisx0402:01514","緊急施設/警察","5"
"BPRG1U","01_00671","枝幸警察署歌登駐在所","44.84567","142.476893","枝幸町歌登西町120-40","jisx0401:01/jisx0402:01514","緊急施設/警察","5"
"jLQyJX","01_00672","天塩警察署兜沼駐在所","45.224327","141.697849","豊富町字上サロベツ西14線",,"緊急施設/警察","5"
"1HPrs0","01_00673","天塩警察署豊富駐在所","45.106208","141.776684","豊富町字上サロベツ2544",,"緊急施設/警察","5"
"JDOka3","01_00674","稚内警察署香深駐在所","45.304613","141.048356","礼文町大字香深村字トンナイ700","jisx0401:01/jisx0402:01517","緊急施設/警察","5"
"rzNcS6","01_00675","稚内警察署船泊駐在所","45.440391","141.037142","礼文町大字船泊村字ヲションナイ310-1","jisx0401:01/jisx0402:01517","緊急施設/警察","5"
"9vM5A9","01_00676","稚内警察署沓形駐在所","45.187809","141.140513","利尻町沓形字日出町63-1","jisx0401:01/jisx0402:01518","緊急施設/警察","5"
"RrKYic","01_00677","稚内警察署仙法志駐在所","45.110237","141.218653","利尻町仙法志字本町90","jisx0401:01/jisx0402:01518","緊急施設/警察","5"
"znJR0f","01_00678","稚内警察署鴛泊駐在所","45.245561","141.217784","利尻富士町鴛泊字栄町156-11","jisx0401:01/jisx0402:01519","緊急施設/警察","5"
"hjIJIi","01_00679","稚内警察署鬼脇駐在所","45.13874","141.307282","利尻富士町鬼脇字鬼脇262","jisx0401:01/jisx0402:01519","緊急施設/警察","5"
"ZfHCql","01_00680","美幌警察署上美幌駐在所","43.789676","144.085431","美幌町字美富416-11","jisx0401:01/jisx0402:01543","緊急施設/警察","5"
"HbGv8o","01_00681","美幌警察署福住駐在所","43.774846","144.172619","美幌町字福住381","jisx0401:01/jisx0402:01543","緊急施設/警察","5"
"p7FnQr","01_00682","美幌警察署活汲駐在所","43.747625","144.054657","津別町字活汲237-1","jisx0401:01/jisx0402:01544","緊急施設/警察","5"
"73Egyu","01_00683","美幌警察署相生駐在所","43.542533","143.983394","津別町字相生110-11","jisx0401:01/jisx0402:01544","緊急施設/警察","5"
"OZD9gx","01_00684","美幌警察署津別駐在所","43.708913","144.025115","津別町字旭町7","jisx0401:01/jisx0402:01544","緊急施設/警察","5"
"wVC1YA","01_00685","美幌警察署本岐駐在所","43.649827","143.990362","津別町字本岐1","jisx0401:01/jisx0402:01544","緊急施設/警察","5"
"eRAUGD","01_00686","斜里警察署ウトロ駐在所","44.069695","144.995285","斜里町ウトロ東26","jisx0401:01/jisx0402:01545","緊急施設/警察","5"
"WNzNoG","01_00687","斜里警察署中斜里駐在所","43.872903","144.65771","斜里町字中斜里22-51","jisx0401:01/jisx0402:01545","緊急施設/警察","5"
"EJyG6J","01_00688","斜里警察署札弦駐在所","43.785928","144.533438","清里町札弦町9-3","jisx0401:01/jisx0402:01546","緊急施設/警察","5"
"mFxyOM","01_00689","斜里警察署清里駐在所","43.835182","144.592995","清里町羽衣町43-8",,"緊急施設/警察","5"
"4BwrwP","01_00690","斜里警察署緑駐在所","43.719724","144.507757","清里町緑町7-21",,"緊急施設/警察","5"
"MxvkeS","01_00691","斜里警察署小清水駐在所","43.856482","144.465922","小清水町字小清水290-2","jisx0401:01/jisx0402:01547","緊急施設/警察","5"
"utucWV","01_00692","斜里警察署浜小清水駐在所","43.932946","144.453004","小清水町字浜小清水40","jisx0401:01/jisx0402:01547","緊急施設/警察","5"
"cpt5EY","01_00693","北見警察署訓子府駐在所","43.726368","143.734436","訓子府町栄町31","jisx0401:01/jisx0402:01549","緊急施設/警察","5"
"UlrYn1","01_00694","北見警察署勝山駐在所","43.641486","143.507693","置戸町字安住139-22","jisx0401:01/jisx0402:01550","緊急施設/警察","5"
"ChqR54","01_00695","北見警察署置戸駐在所","43.678797","143.595698","置戸町字置戸9-10","jisx0401:01/jisx0402:01550","緊急施設/警察","5"
"kdpJN7","01_00696","遠軽警察署佐呂間駐在所","44.014588","143.768916","佐呂間町字宮前町166-1","jisx0401:01/jisx0402:01552","緊急施設/警察","5"
"29oCva","01_00697","遠軽警察署若佐駐在所","43.983032","143.698899","佐呂間町字若佐19-5","jisx0401:01/jisx0402:01552","緊急施設/警察","5"
"K5nvdd","01_00698","遠軽警察署浜佐呂間駐在所","44.081945","143.945153","佐呂間町字浜佐呂間61","jisx0401:01/jisx0402:01552","緊急施設/警察","5"
"s1mnVg","01_00699","遠軽警察署安国駐在所","43.992388","143.537856","遠軽町生田原安国92-12","jisx0401:01/jisx0402:01555","緊急施設/警察","5"
"9XlgDj","01_00700","遠軽警察署丸瀬布駐在所","44.007104","143.33973","遠軽町丸瀬布東町259-2","jisx0401:01/jisx0402:01555","緊急施設/警察","5"
"RTk9lm","01_00701","遠軽警察署生田原駐在所","43.920729","143.534972","遠軽町生田原416","jisx0401:01/jisx0402:01554","緊急施設/警察","5"
"zPj23p","01_00702","遠軽警察署白滝駐在所","43.886156","143.183966","遠軽町白滝1056-3","jisx0401:01/jisx0402:01555","緊急施設/警察","5"
"hLhULs","01_00703","遠軽警察署上湧別駐在所","44.150123","143.57151","湧別町上湧別屯田市街地224-1","jisx0401:01/jisx0402:01559","緊急施設/警察","5"
"ZHgNtv","01_00704","遠軽警察署中湧別駐在所","44.183865","143.592596","湧別町中湧別南町539","jisx0401:01/jisx0402:01559","緊急施設/警察","5"
"HDfGby","01_00705","遠軽警察署芭露駐在所","44.153848","143.688807","湧別町芭露276","jisx0401:01/jisx0402:01559","緊急施設/警察","5"
"pzeyTB","01_00706","遠軽警察署湧別駐在所","44.227089","143.618447","湧別町曙町76","jisx0401:01/jisx0402:01559","緊急施設/警察","5"
"7vdrBE","01_00707","紋別警察署滝上駐在所","44.192171","143.078788","滝上町字滝ノ上市街地3条通2丁目18-3","jisx0401:01/jisx0402:01560","緊急施設/警察","5"
"PrckjH","01_00708","紋別警察署濁川駐在所","44.19381","143.107388","滝上町オシラネップ原野2679-1","jisx0401:01/jisx0402:01560","緊急施設/警察","5"
"xnbd1K","01_00709","興部警察署沙留駐在所","44.43411164","143.22048982","興部町字沙留405-5","jisx0401:01/jisx0402:01561","緊急施設/警察","5"
"fja5JN","01_00710","興部警察署上興部駐在所","44.336357","142.872745","西興部村字上興部47-1","jisx0401:01/jisx0402:01561","緊急施設/警察","5"
"Xf8YrQ","01_00711","興部警察署西興部駐在所","44.32923248","142.94519279","西興部村字西興部56","jisx0401:01/jisx0402:01562","緊急施設/警察","5"
"Fb7R9T","01_00712","興部警察署幌内駐在所","44.656598","142.879694","雄武町字幌内206","jisx0401:01/jisx0402:01563","緊急施設/警察","5"
"n76JRW","01_00713","興部警察署雄武駐在所","44.583636","142.961971","雄武町字雄武1022","jisx0401:01/jisx0402:01563","緊急施設/警察","5"
"535CzZ","01_00714","網走警察署女満別駐在所","43.91146905","144.17035754","大空町女満別西3条4丁目2-7","jisx0401:01/jisx0402:01564","緊急施設/警察","5"
"MZ4vi2","01_00715","網走警察署東藻琴駐在所","43.841093","144.296632","大空町東藻琴366-1","jisx0401:01/jisx0402:01564","緊急施設/警察","5"
"uV3o05","01_00716","伊達警察署大岸駐在所","42.58892","140.64459","豊浦町字大岸113-19",,"緊急施設/警察","5"
"cR2gI8","01_00717","伊達警察署豊浦駐在所","42.581893","140.713477","豊浦町字旭町31-2",,"緊急施設/警察","5"
"UN19qb","01_00718","伊達警察署礼文華駐在所","42.581669","140.592957","豊浦町字礼文華167-37",,"緊急施設/警察","5"
"CJ028e","01_00719","伊達警察署久保内駐在所","42.57907","140.958369","壮瞥町字久保内91-7","jisx0401:01/jisx0402:01575","緊急施設/警察","5"
"kEYUQh","01_00720","伊達警察署壮暼駐在所","42.558544","140.889766","壮瞥町字滝之町420-6","jisx0401:01/jisx0402:01575","緊急施設/警察","5"
"2AXNyk","01_00721","苫小牧警察署虎杖浜駐在所","42.464729","141.222188","白老町字虎杖浜14-2","jisx0401:01/jisx0402:01578","緊急施設/警察","5"
"KwWGgn","01_00722","苫小牧警察署竹浦駐在所","42.490711","141.258521","白老町字竹浦36-1","jisx0401:01/jisx0402:01578","緊急施設/警察","5"
"ssVyYq","01_00723","苫小牧警察署厚真駐在所","42.724651","141.877806","厚真町京町31","jisx0401:01/jisx0402:01581","緊急施設/警察","5"
"aoUrGt","01_00724","苫小牧警察署上厚真駐在所","42.641398","141.848792","厚真町字上厚真251-11","jisx0401:01/jisx0402:01581","緊急施設/警察","5"
"SkTkow","01_00725","伊達警察署洞爺駐在所","42.64953","140.833572","洞爺湖町洞爺町48-13","jisx0401:01/jisx0402:01584","緊急施設/警察","5"
"AgSd6z","01_00726","苫小牧警察署安平駐在所","42.813129","141.831199","安平町安平671-4","jisx0401:01/jisx0402:01585","緊急施設/警察","5"
"icR5OC","01_00727","苫小牧警察署遠浅駐在所","42.727775","141.771404","安平町遠浅14","jisx0401:01/jisx0402:01585","緊急施設/警察","5"
"08PYwF","01_00728","苫小牧警察署早来駐在所","42.767356","141.820258","安平町早来大町130-2","jisx0401:01/jisx0402:01585","緊急施設/警察","5"
"I4OReI","01_00729","苫小牧警察署追分駐在所","42.872066","141.814864","安平町追分本町5丁目44-1","jisx0401:01/jisx0402:01580","緊急施設/警察","5"
"q0NJWL","01_00730","苫小牧警察署穂別駐在所","42.763854","142.135992","むかわ町穂別29-26","jisx0401:01/jisx0402:01583","緊急施設/警察","5"
"7WMCEO","01_00731","門別警察署厚賀駐在所","42.427047","142.22502","日高町字厚賀町147-15","jisx0401:01/jisx0402:01601","緊急施設/警察","5"
"PSLvmR","01_00732","門別警察署日高駐在所","42.877438","142.444533","日高町本町東2-291-1",,"緊急施設/警察","5"
"xOKo4U","01_00733","門別警察署本町駐在所","42.479619","142.073228","日高町門別本町188-2","jisx0401:01/jisx0402:01601","緊急施設/警察","5"
"fKJgMX","01_00734","門別警察署荷負駐在所","42.679656","142.197816","平取町字荷負54-5","jisx0401:01/jisx0402:01602","緊急施設/警察","5"
"XGI9v0","01_00735","門別警察署振内駐在所","42.726182","142.301248","平取町振内町28-10","jisx0401:01/jisx0402:01602","緊急施設/警察","5"
"FCH2d3","01_00736","門別警察署平取駐在所","42.584275","142.127578","平取町本町25-1","jisx0401:01/jisx0402:01602","緊急施設/警察","5"
"nyFUV6","01_00737","静内警察署新冠駐在所","42.358861","142.317349","新冠町字東町16-19","jisx0401:01/jisx0402:01604","緊急施設/警察","5"
"5uEND9","01_00738","静内警察署節婦駐在所","42.382229","142.274849","新冠町字節婦158-4","jisx0401:01/jisx0402:01604","緊急施設/警察","5"
"NqDGlc","01_00739","静内警察署泉駐在所","42.487213","142.437277","新冠町字泉45","jisx0401:01/jisx0402:01604","緊急施設/警察","5"
"vmCz3f","01_00740","静内警察署朝日駐在所","42.400715","142.375596","新冠町字朝日293","jisx0401:01/jisx0402:01604","緊急施設/警察","5"
"diBrLi","01_00741","浦河警察署荻伏駐在所","42.195848","142.678671","浦河町荻伏町28","jisx0401:01/jisx0402:01607","緊急施設/警察","5"
"VeAktl","01_00742","浦河警察署西幌別駐在所","42.142596","142.82905","浦河町字西幌別無番地","jisx0401:01/jisx0402:01607","緊急施設/警察","5"
"Dazdbo","01_00743","浦河警察署幌満駐在所","42.076863","143.034813","様似町字幌満60","jisx0401:01/jisx0402:01608","緊急施設/警察","5"
"l6y5Tr","01_00744","浦河警察署様似駐在所","42.127793","142.937458","様似町大通2-42-2","jisx0401:01/jisx0402:01608","緊急施設/警察","5"
"32wYBu","01_00745","浦河警察署えりも本町駐在所","42.012581","143.150514","えりも町字新浜237-3","jisx0401:01/jisx0402:01609","緊急施設/警察","5"
"KYvRjx","01_00746","浦河警察署えりも岬駐在所","41.935639","143.242027","えりも町字えりも岬233-1","jisx0401:01/jisx0402:01609","緊急施設/警察","5"
"sUuK1A","01_00747","浦河警察署庶野駐在所","42.041683","143.292319","えりも町字庶野523-5","jisx0401:01/jisx0402:01609","緊急施設/警察","5"
"aQtCJD","01_00748","静内警察署歌笛駐在所","42.27341","142.685691","新ひだか町三石歌笛40-2","jisx0401:01/jisx0402:01606","緊急施設/警察","5"
"SMsvrG","01_00749","静内警察署御園駐在所","42.417611","142.473508","新ひだか町静内御園294","jisx0401:01/jisx0402:01605","緊急施設/警察","5"
"AIro9J","01_00750","静内警察署三石駐在所","42.247213","142.565035","新ひだか町三石旭町245","jisx0401:33/jisx0402:33662","緊急施設/警察","5"
"iEqgRM","01_00751","静内警察署春立駐在所","42.267197","142.497773","新ひだか町静内春立192","jisx0401:01/jisx0402:01610","緊急施設/警察","5"
"0Ap9zP","01_00752","静内警察署東静内駐在所","42.297594","142.453926","新ひだか町東静内102","jisx0401:01/jisx0402:01610","緊急施設/警察","5"
"Iwo2hS","01_00753","静内警察署本桐駐在所","42.250063","142.63355","新ひだか町三石本桐221","jisx0401:01/jisx0402:01606","緊急施設/警察","5"
"qsmUZV","01_00754","帯広警察署駒場駐在所","43.048313","143.186238","音更町駒場北1条通2丁目2","jisx0401:01/jisx0402:01631","緊急施設/警察","5"
"8olNHY","01_00755","帯広警察署十勝川温泉駐在所","42.934276","143.296873","音更町十勝川温泉南12-1","jisx0401:01/jisx0402:01631","緊急施設/警察","5"
"QkkGq1","01_00756","帯広警察署士幌駐在所","43.166247","143.244532","士幌町字士幌西2線160-59","jisx0401:01/jisx0402:01107","緊急施設/警察","5"
"ygjz84","01_00757","帯広警察署中士幌駐在所","43.098171","143.230508","士幌町字中士幌西2線77","jisx0401:01/jisx0402:01632","緊急施設/警察","5"
"gcirQ7","01_00758","帯広警察署糠平駐在所","43.365242","143.190568","上士幌町字ぬかびら源泉郷南区12","jisx0401:01/jisx0402:01106","緊急施設/警察","5"
"Y8hkya","01_00759","帯広警察署上士幌中央駐在所","43.232464","143.293747","上士幌町東3線237","jisx0401:01/jisx0402:01103","緊急施設/警察","5"
"G4gdgd","01_00760","新得警察署瓜幕駐在所","43.165963","143.024967","鹿追町瓜幕東1丁目2","jisx0401:01/jisx0402:01634","緊急施設/警察","5"
"o0f5Yg","01_00761","新得警察署鹿追駐在所","43.101107","142.990778","鹿追町新町1-42","jisx0401:01/jisx0402:01634","緊急施設/警察","5"
"5WdYGj","01_00762","新得警察署屈足駐在所","43.102085","142.903467","新得町屈足柏町1-44-1","jisx0401:01/jisx0402:01635","緊急施設/警察","5"
"NScRom","01_00763","新得警察署熊牛駐在所","43.014505","142.951535","清水町字熊牛71","jisx0401:01/jisx0402:01636","緊急施設/警察","5"
"vObK6p","01_00764","新得警察署御影駐在所","42.943568","142.938763","清水町御影東1条3丁目2","jisx0401:01/jisx0402:01636","緊急施設/警察","5"
"dKaCOs","01_00765","帯広警察署上美生駐在所","42.804501","142.956326","芽室町字上美生4線32-2","jisx0401:01/jisx0402:01637","緊急施設/警察","5"
"VG9vwv","01_00766","帯広警察署中札内駐在所","42.699407","143.133401","中札内村大通北1-15","jisx0401:01/jisx0402:01638","緊急施設/警察","5"
"DC8oey","01_00767","帯広警察署更別駐在所","42.653775","143.188759","更別村字更別南1線96-80","jisx0401:01/jisx0402:01106","緊急施設/警察","5"
"ly7gWB","01_00768","広尾警察署大樹駐在所","42.48774","143.271817","大樹町西本通73-3","jisx0401:01/jisx0402:01641","緊急施設/警察","5"
"3u69EE","01_00769","広尾警察署音調津駐在所","42.223051","143.318885","広尾町字音調津693-2","jisx0401:01/jisx0402:01642","緊急施設/警察","5"
"Lq52mH","01_00770","広尾警察署豊似駐在所","42.394142","143.303487","広尾町字豊似22","jisx0401:01/jisx0402:01642","緊急施設/警察","5"
"tm3V4K","01_00771","帯広警察署糠内駐在所","42.784266","143.327933","幕別町字五位373","jisx0401:01/jisx0402:01643","緊急施設/警察","5"
"bi2NMN","01_00772","帯広警察署忠類駐在所","42.563817","143.303754","幕別町忠類白銀町165-1","jisx0401:01/jisx0402:01643","緊急施設/警察","5"
"Te1GuQ","01_00773","帯広警察署幕別駐在所","42.905212","143.357942","幕別町宝町53-1","jisx0401:01/jisx0402:01643","緊急施設/警察","5"
"Ba0zcT","01_00774","池田警察署高島駐在所","43.024048","143.458519","池田町字高島4-9","jisx0401:21/jisx0402:21404","緊急施設/警察","5"
"j5ZrUW","01_00775","池田警察署利別駐在所","42.929476","143.432025","池田町字利別本町16-27","jisx0401:21/jisx0402:21404","緊急施設/警察","5"
"11YkCZ","01_00776","池田警察署大津駐在所","42.682956","143.646444","豊頃町大津寿町34","jisx0401:01/jisx0402:01645","緊急施設/警察","5"
"IXXdl2","01_00777","池田警察署豊頃駐在所","42.814022","143.540597","豊頃町豊頃南町101-1","jisx0401:01/jisx0402:01645","緊急施設/警察","5"
"qTW635","01_00778","池田警察署茂岩駐在所","42.805242","143.501557","豊頃町茂岩新和町12","jisx0401:01/jisx0402:01645","緊急施設/警察","5"
"8PUYL8","01_00779","本別警察署勇足駐在所","43.089931","143.522371","本別町勇足元町4-3","jisx0401:01/jisx0402:01646","緊急施設/警察","5"
"QLTRtb","01_00780","本別警察署芽登駐在所","43.276074","143.426591","足寄町芽登本町114","jisx0401:01/jisx0402:01647","緊急施設/警察","5"
"yHSKbe","01_00781","本別警察署上利別駐在所","43.353711","143.604435","足寄町上利別本町67","jisx0401:01/jisx0402:01647","緊急施設/警察","5"
"gDRCTh","01_00782","本別警察署螺湾駐在所","43.306608","143.707011","足寄町螺湾本町53","jisx0401:01/jisx0402:01647","緊急施設/警察","5"
"YzQvBk","01_00783","本別警察署陸別駐在所","43.467647","143.748501","陸別町字陸別東3条3丁目4","jisx0401:01/jisx0402:01103","緊急施設/警察","5"
"GvPojn","01_00784","池田警察署浦幌駐在所","42.809746","143.657073","浦幌町字桜町16-8","jisx0401:01/jisx0402:01649","緊急施設/警察","5"
"orOh1q","01_00785","池田警察署吉野駐在所","42.776221","143.608079","浦幌町字吉野186-2","jisx0401:01/jisx0402:01649","緊急施設/警察","5"
"6nN9Jt","01_00786","池田警察署厚内駐在所","42.808192","143.816724","浦幌町字厚内3条通2丁目2","jisx0401:01/jisx0402:01649","緊急施設/警察","5"
"OjM2rw","01_00787","池田警察署上浦幌駐在所","43.042941","143.623143","浦幌町字富川204-2","jisx0401:01/jisx0402:01649","緊急施設/警察","5"
"wfKV9z","01_00788","釧路警察署昆布森駐在所","42.952955","144.53237","釧路町昆布森3-68","jisx0401:01/jisx0402:01661","緊急施設/警察","5"
"ebJNRC","01_00789","釧路警察署別保駐在所","42.995007","144.466657","釧路町別保2-7","jisx0401:01/jisx0402:01661","緊急施設/警察","5"
"W7IGzF","01_00790","厚岸警察署尾幌駐在所","43.017174","144.704047","厚岸町尾幌280","jisx0401:01/jisx0402:01662","緊急施設/警察","5"
"E3HzhI","01_00791","厚岸警察署茶内駐在所","43.13345","145.022012","浜中町茶内橋北東41","jisx0401:01/jisx0402:01663","緊急施設/警察","5"
"lZGrZL","01_00792","厚岸警察署浜中駐在所","43.157061","145.101948","浜中町浜中桜北122","jisx0401:01/jisx0402:01663","緊急施設/警察","5"
"3VFkHO","01_00793","厚岸警察署霧多布駐在所","43.078939","145.128279","浜中町霧多布西2条1丁目62","jisx0401:01/jisx0402:01663","緊急施設/警察","5"
"LREdpR","01_00794","弟子屈警察署磯分内駐在所","43.375322","144.555541","標茶町熊牛原野15線西1-46","jisx0401:01/jisx0402:01107","緊急施設/警察","5"
"tND67U","01_00795","弟子屈警察署塘路駐在所","43.15093","144.496475","標茶町字塘路原野北7線西51","jisx0401:01/jisx0402:01107","緊急施設/警察","5"
"bJBYPX","01_00796","弟子屈警察署標茶駐在所","43.304179","144.601208","標茶町常盤8丁目7","jisx0401:01/jisx0402:01664","緊急施設/警察","5"
"TFARy0","01_00797","弟子屈警察署川湯駐在所","43.63887","144.43893","弟子屈町川湯温泉1丁目7-8","jisx0401:01/jisx0402:01665","緊急施設/警察","5"
"BBzKg3","01_00798","釧路警察署鶴居駐在所","43.235775","144.324681","鶴居村鶴居西4-3","jisx0401:01/jisx0402:01667","緊急施設/警察","5"
"jxyCY6","01_00799","釧路警察署庶路駐在所","42.982299","144.144713","白糠町庶路東1線4-5","jisx0401:01/jisx0402:01668","緊急施設/警察","5"
"1txvG9","01_00800","釧路警察署西庶路駐在所","42.980754","144.127226","白糠町西庶路東1条北2丁目1-33","jisx0401:01/jisx0402:01102","緊急施設/警察","5"
"Jpwooc","01_00801","中標津警察署別海駐在所","43.392198","145.123742","別海町別海西本町56","jisx0401:01/jisx0402:01691","緊急施設/警察","5"
"rlvh6f","01_00802","中標津警察署上春別駐在所","43.429158","144.8954","別海町上春別南町24-1","jisx0401:01/jisx0402:01691","緊急施設/警察","5"
"9hu9Oi","01_00803","中標津警察署西春別駅前駐在所","43.414628","144.763384","別海町西春別駅前寿町102","jisx0401:01/jisx0402:01691","緊急施設/警察","5"
"Rdt2wl","01_00804","中標津警察署西春別駐在所","43.390716","144.808049","別海町西春別幸町55-2","jisx0401:01/jisx0402:01691","緊急施設/警察","5"
"z9rVeo","01_00805","中標津警察署中春別駐在所","43.477046","145.057634","別海町中春別東町90","jisx0401:01/jisx0402:01691","緊急施設/警察","5"
"h5qNWr","01_00806","中標津警察署尾岱沼駐在所","43.567067","145.21995","別海町尾岱沼潮見町88-12","jisx0401:01/jisx0402:01691","緊急施設/警察","5"
"Z1pGEu","01_00807","中標津警察署本別海駐在所","43.384398","145.286283","別海町本別海2-157","jisx0401:01/jisx0402:01691","緊急施設/警察","5"
"GXozmx","01_00808","中標津警察署計根別駐在所","43.488981","144.81121","中標津町字計根別本通東1-5","jisx0401:01/jisx0402:01103","緊急施設/警察","5"
"oTns4A","01_00809","中標津警察署薫別駐在所","43.794145","145.060037","標津町字薫別27","jisx0401:01/jisx0402:01693","緊急施設/警察","5"
"6PmkMD","01_00810","中標津警察署川北駐在所","43.658356","145.02274","標津町字川北2460-134","jisx0401:01/jisx0402:01693","緊急施設/警察","5"
"OLlduG","01_00811","中標津警察署標津駐在所","43.66023","145.132457","標津町北1条西1丁目1-20-1","jisx0401:01/jisx0402:01107","緊急施設/警察","5"
"wHk6cJ","01_00812","中標津警察署麻布駐在所","43.968824","145.139409","羅臼町麻布町108-7","jisx0401:01/jisx0402:01694","緊急施設/警察","5"
"eDiYUM","01_00813","中標津警察署羅臼駐在所","44.02162","145.190383","羅臼町栄町100-83","jisx0401:01/jisx0402:01694","緊急施設/警察","5"
"WzhRCP","01_00814","南警察署旭ヶ丘警備派出所","43.039666","141.324324","札幌市中央区南13条西23丁目19","jisx0401:01/jisx0402:01107","緊急施設/警察","6"
"EvgKkS","01_00815","南警察署南十五条警備派出所","43.039931","141.342334","札幌市中央区南15条西11丁目1243-6","jisx0401:01/jisx0402:01106","緊急施設/警察","6"
"mrfD2V","01_00816","東警察署空港警備派出所","43.11069","141.381806","札幌市東区丘珠町無番地（札幌空港ターミナルビル内）","jisx0401:01/jisx0402:01201","緊急施設/警察","6"
"4nevKY","01_00818","函館中央警察署空港警備派出所","41.775738","140.81501","函館市高松町511","jisx0401:01/jisx0402:01202","緊急施設/警察","6"
"Mjdot1","01_00820","釧路警察署空港警備派出所","43.045627","144.195953","釧路市鶴丘2-2（釧路空港ビル内）","jisx0401:01/jisx0402:01206","緊急施設/警察","6"
"ufchb4","01_00821","帯広警察署空港警備派出所","42.73016","143.214828","帯広市泉町西9線中8-41","jisx0401:14/jisx0402:14104","緊急施設/警察","6"
"cbb9T7","01_00822","苫小牧警察署西港水上警備派出所","42.638169","141.635228","苫小牧市入舟町1-2-34（苫小牧港フェリーターミナル内）","jisx0401:01/jisx0402:01213","緊急施設/警察","6"
"U7a2Ba","01_00823","稚内警察署空港警備派出所","45.399476","141.797801","稚内市大字声問村字声問6744（稚内空港ターミナルビル内）","jisx0401:01/jisx0402:01214","緊急施設/警察","6"
"C38Vjd","01_00824","紋別警察署オホーツク紋別空港警備派出所","44.306873","143.407617","紋別市小向19-3（オホーツク紋別空港ビル内）","jisx0401:01/jisx0402:01219","緊急施設/警察","6"
"jZ7O1g","01_00825","千歳警察署空港警備派出所","42.785348","141.679741","千歳市美々（新千歳空港旅客ターミナルビル内）","jisx0401:01/jisx0402:01224","緊急施設/警察","6"
"1V6GJj","01_00826","江差警察署奥尻空港警備派出所","42.072538","139.435545","奥尻町字米岡185-2（奥尻空港ターミナルビル内）","jisx0401:01/jisx0402:01367","緊急施設/警察","6"
"JR5zrm","01_00827","旭川東警察署空港警備派出所","43.671473","142.453794","東神楽町字千代ヶ岡10-138（旭川空港ビル内）","jisx0401:01/jisx0402:01204","緊急施設/警察","6"
"rN4s9p","01_00828","稚内警察署利尻空港警備派出所","45.243769","141.187782","利尻富士町鴛泊字本泊1143（利尻空港ターミナルビル内）","jisx0401:01/jisx0402:01518","緊急施設/警察","6"
"9J3kRs","01_00829","網走警察署空港警備派出所","43.881445","144.158809","大空町女満別中央201-3（女満別空港ビル内）","jisx0401:01/jisx0402:01542","緊急施設/警察","6"
"RF2dzv","01_00830","中標津警察署空港警備派出所","43.57299922","144.95607412","中標津町北中17番地6中標津空港内","jisx0401:01/jisx0402:01692","緊急施設/警察","6"
"zB16hy","01_00831","北海道警察学校","42.979149","141.348956","札幌市南区真駒内南町5丁目1-7","jisx0401:01/jisx0402:01106","緊急施設/警察","7"
"hwZYZB","01_00832","北警察署新琴似西交番","43.121617","141.311148","札幌市北区新琴似7条14丁目1-11","jisx0401:01/jisx0402:01102","緊急施設/警察","4"
"ZsYRHE","01_00833","西警察署山の手連絡所","43.066532","141.29754","札幌市西区山の手2条6丁目2番14号","jisx0401:01/jisx0402:01107","緊急施設/警察","8"
"HoXKpH","01_00834","豊平警察署緑ケ丘交番","43.00005","141.472553","札幌市清田区里塚緑ヶ丘1丁目14-26","jisx0401:01/jisx0402:01110","緊急施設/警察","4"
"pkWD7K","01_00835","夕張警察署末広連絡所","43.05047991","141.96640903","夕張市末広1丁目94番地","jisx0401:01/jisx0402:01209","緊急施設/警察","8"
"7gVvPN","01_00837","木古内警察署署所在地交番","41.67664246","140.43456098","木古内町字本町550-3","jisx0401:01/jisx0402:01334","緊急施設/警察","4"
"PcUoxQ","01_00838","江差警察署署所在地交番","41.865312","140.123705","江差町字上野町30","jisx0401:01/jisx0402:01361","緊急施設/警察","4"
"x8ThfT","01_00839","せたな警察署署所在地交番","42.416267","139.878732","せたな町北檜山区徳島4-17","jisx0401:01/jisx0402:01371","緊急施設/警察","4"
"f4S9XW","01_00840","寿都警察署署所在地交番","42.793112","140.229583","寿都町字渡島町82-1","jisx0401:01/jisx0402:01392","緊急施設/警察","4"
"X0R2FZ","01_00841","沼田警察署署所在地交番","43.8094521","141.92862021","沼田町北1条6丁目1-2","jisx0401:01/jisx0402:01102","緊急施設/警察","4"
"EWPVo2","01_00842","天塩警察署署所在地交番","44.88958873","141.74510003","天塩町新栄通9","jisx0401:01/jisx0402:01487","緊急施設/警察","4"
"mSOO65","01_00843","枝幸警察署署所在地交番","44.939552","142.582352","枝幸町字本町705-2","jisx0401:01/jisx0402:01514","緊急施設/警察","4"
"4ONGO8","01_00844","斜里警察署署所在地交番","43.913185","144.66638","斜里町本町43-6","jisx0401:01/jisx0402:01545","緊急施設/警察","4"
"MKMzwb","01_00845","興部警察署署所在地交番","44.46928505","143.12704318","興部町字興部755-3","jisx0401:01/jisx0402:01561","緊急施設/警察","4"
"uGLsee","01_00846","新得警察署署所在地交番","43.077055","142.840875","新得町4条南6丁目1-2","jisx0401:01/jisx0402:01106","緊急施設/警察","4"
"cCKkWh","01_00847","広尾警察署書所在地交番","42.29545984","143.31378992","広尾町並木通東1丁目2－3","jisx0401:01/jisx0402:01642","緊急施設/警察","4"
"UyJdEk","01_00848","池田警察署署所在地交番","42.92682928","143.44629695","池田町西3条6丁目10","jisx0401:27/jisx0402:27106","緊急施設/警察","4"
"CuI6mn","01_00849","本別警察署署所在地交番","43.123298","143.610581","本別町北1-4-20","jisx0401:01/jisx0402:01102","緊急施設/警察","4"
"kqGZ4q","01_00850","厚岸警察署署所在地交番","43.05542","144.845132","厚岸町真栄1丁目7","jisx0401:01/jisx0402:01662","緊急施設/警察","4"
"2mFRMt","01_00851","弟子屈警察署署所在地交番","43.484387","144.459404","弟子屈町中央2-9-28","jisx0401:01/jisx0402:01665","緊急施設/警察","4"
"KiEKuw","02_00001","青森県警察本部","40.825448","140.740365","青森市新町2-3-1","jisx0401:02/jisx0402:02201","緊急施設/警察","1"
"seDDcz","02_00002","青森警察署","40.828226","140.745087","青森市安方2-15-9","jisx0401:02/jisx0402:02201","緊急施設/警察","2"
"aaCvUC","02_00003","青森南警察署","40.7174","140.59066","青森市浪岡大字浪岡字淋城87-1","jisx0401:02/jisx0402:02201","緊急施設/警察","2"
"S6BoCF","02_00004","弘前警察署","40.616853","140.484839","弘前市大字八幡町3-3-2","jisx0401:02/jisx0402:02202","緊急施設/警察","2"
"A2AhkI","02_00005","八戸警察署","40.517004","141.492028","八戸市城下1-16-25","jisx0401:02/jisx0402:02203","緊急施設/警察","2"
"hYza2L","02_00006","黒石警察署","40.652964","140.605105","黒石市北美町2-47-1","jisx0401:02/jisx0402:02204","緊急施設/警察","2"
"ZUy2KO","02_00007","五所川原警察署","40.796834","140.445112","五所川原市字栄町6-1","jisx0401:02/jisx0402:02205","緊急施設/警察","2"
"HQwVsR","02_00008","十和田警察署","40.600485","141.21839","十和田市西六番町1-41","jisx0401:02/jisx0402:02206","緊急施設/警察","2"
"pMvOaU","02_00009","三沢警察署","40.687147","141.366984","三沢市平畑1-1-38","jisx0401:02/jisx0402:02207","緊急施設/警察","2"
"7IuGSX","02_00010","むつ警察署","41.290965","141.19003","むつ市中央1-3-33","jisx0401:02/jisx0402:02208","緊急施設/警察","2"
"PEtzB0","02_00011","つがる警察署","40.807109","140.386783","つがる市木造千代町18-1","jisx0401:02/jisx0402:02209","緊急施設/警察","2"
"xAssj3","02_00012","外ヶ浜警察署","41.047089","140.637031","外ヶ浜町字蟹田中師苗代沢3","jisx0401:02/jisx0402:02307","緊急施設/警察","2"
"fwrl16","02_00013","鰺ケ沢警察署","40.78044","140.207075","鰺ヶ沢町大字本町207","jisx0401:02/jisx0402:02321","緊急施設/警察","2"
"XsqdJ9","02_00014","板柳警察署","40.702954","140.450116","板柳町大字灰沼字玉川15-50","jisx0401:02/jisx0402:02381","緊急施設/警察","2"
"Fop6rc","02_00015","野辺地警察署","40.867122","141.122278","野辺地町字新町裏1-1","jisx0401:02/jisx0402:02401","緊急施設/警察","2"
"nknZ9f","02_00016","七戸警察署","40.71551341","141.15699478","七戸町字大沢57-49","jisx0401:02/jisx0402:02402","緊急施設/警察","2"
"5gmRRi","02_00017","大間警察署","41.528434","140.90838","大間町大字大間字大間54-1","jisx0401:02/jisx0402:02423","緊急施設/警察","2"
"NclKzl","02_00018","三戸警察署","40.373015","141.246174","三戸町大字同心町字金堀59-2","jisx0401:02/jisx0402:02441","緊急施設/警察","2"
"v8kDho","02_00019","五戸警察署","40.524108","141.305051","五戸町字下モ沢向13-6","jisx0401:02/jisx0402:02442","緊急施設/警察","2"
"d4jvZr","02_00020","青森警察署つくだ交番","40.814876","140.781016","青森市南佃2-1-1","jisx0401:02/jisx0402:02201","緊急施設/警察","4"
"V0ioHu","02_00021","青森警察署みなみ交番","40.806006","140.745643","青森市緑2-6-11","jisx0401:02/jisx0402:02201","緊急施設/警察","4"
"CWhhpx","02_00022","青森警察署三内丸山交番","40.810428","140.716451","青森市浪館前田3-22-11","jisx0401:02/jisx0402:02201","緊急施設/警察","4"
"kSga7A","02_00023","青森警察署勝田交番","40.814894","140.755365","青森市勝田1-15-9","jisx0401:02/jisx0402:02201","緊急施設/警察","4"
"2Of2PD","02_00024","青森警察署新城交番","40.827952","140.677237","青森市大字新城字平岡174-35","jisx0401:02/jisx0402:02201","緊急施設/警察","4"
"KKdVxG","02_00025","青森警察署西部交番","40.826559","140.722588","青森市沖館1-2-1","jisx0401:02/jisx0402:02201","緊急施設/警察","4"
"sGcOfJ","02_00026","青森警察署青森駅前交番","40.827563","140.734967","青森市新町1-2-3","jisx0401:02/jisx0402:02201","緊急施設/警察","4"
"aCbGXM","02_00027","青森警察署中央交番","40.823782","140.745643","青森市本町1-1-33","jisx0401:02/jisx0402:02201","緊急施設/警察","4"
"SyazFP","02_00028","青森警察署堤町交番","40.824338","140.761475","青森市堤町1-13","jisx0401:02/jisx0402:02201","緊急施設/警察","4"
"Au9snS","02_00029","青森警察署東部駐在所","40.831283","140.817858","青森市大字平新田字池上11-122","jisx0401:02/jisx0402:02201","緊急施設/警察","5"
"iq8l5V","02_00030","青森警察署筒井交番","40.809746","140.763662","青森市奥野4-18-6","jisx0401:02/jisx0402:02201","緊急施設/警察","4"
"0m7dNY","02_00031","青森警察署油川駐在所","40.852389","140.6987","青森市大字羽白字沢田17-1","jisx0401:02/jisx0402:02201","緊急施設/警察","5"
"Ii66w1","02_00032","青森警察署浪打交番","40.828227","140.782028","青森市合浦2-102-9","jisx0401:02/jisx0402:02201","緊急施設/警察","4"
"qe4Ze4","02_00033","弘前警察署弘前駅前交番","40.599422","140.483469","弘前市大字駅前町17-6","jisx0401:02/jisx0402:02202","緊急施設/警察","4"
"8a3RW7","02_00034","弘前警察署城東交番","40.603244","140.49845","弘前市大字城東中央5-5-1","jisx0401:02/jisx0402:02202","緊急施設/警察","4"
"Q62KEa","02_00035","弘前警察署中央交番","40.603799","140.46873","弘前市大字元寺町1-5","jisx0401:02/jisx0402:02202","緊急施設/警察","4"
"y21Dmd","02_00036","弘前警察署桝形交番","40.584634","140.474842","弘前市大字中野1-1-1","jisx0401:02/jisx0402:02202","緊急施設/警察","4"
"fY0w4g","02_00037","八戸警察署下長交番","40.532167","141.476146","八戸市下長2-2-28","jisx0401:02/jisx0402:02203","緊急施設/警察","4"
